,이름,주소,위도,경도,단어
0,단봉낚시터,강원도 동해시 봉정2길 95-9,37.46989535,129.1218004,"['강원', '강원도', '동해', '동해시', '봉정', '봉정2길', '2', '길']"
1,도깨비낚시터,강원도 횡성군 우천면 백달리 8,37.44348486,128.0719036,"['강원', '강원도', '횡성', '횡성군', '우천', '우천면', '면', '백', '백달', '달', '8']"
2,새말낚시터,강원도 횡성군 우천면 문암리 229,37.467563,128.0436703,"['강원', '강원도', '횡성', '횡성군', '우천', '우천면', '면', '문', '문암', '암', '229']"
3,대영낚시터,강원도 횡성군 공근면 부창리 546-2,37.585641,127.9945217,"['강원', '강원도', '횡성', '횡성군', '공근', '공근면', '면', '부', '부창', '창']"
4,현천낚시터,강원도 횡성군 둔내면 현천리 821-2,37.48341109,128.175495,"['강원', '강원도', '횡성', '횡성군', '둔내', '둔내면', '면', '현천']"
5,굴운낚시터,강원도 홍천군 화촌면 굴운리 642,37.72329121,127.966379,"['강원', '강원도', '홍천', '홍천군', '화촌', '화촌면', '면', '굴', '굴운리', '운', '리', '642']"
6,구만리낚시터,강원도 홍천군 북방면 구만리 781,37.71172345,127.7018265,"['강원', '강원도', '홍천', '홍천군', '북방', '북방면', '면', '구만리', '781']"
7,모곡낚시터,강원도 홍천군 서면 모곡리 1134-2,37.69567811,127.5743335,"['강원', '강원도', '홍천', '홍천군', '서면', '곡']"
8,시동유정낚시터,강원도 홍천군 남면 시동1리 1158-2,37.59204491,127.8245737,"['강원', '강원도', '홍천', '홍천군', '남면', '시동', '시동1리', '1', '리']"
9,백달낚시터,강원도 횡성군 우천면 백달리 180,37.439543,128.064043,"['강원', '강원도', '횡성', '횡성군', '우천', '우천면', '면', '백', '백달', '달', '180']"
10,산내들낚시터,강원도 철원군 김화읍 연동길33,38.2358501,127.3635403,"['강원', '강원도', '철원', '철원군', '김화', '김화읍', '연동', '연동길33', '길', '33']"
11,소금강가족낚시터,강원도 강릉시 연곡면 신왕길 388-64,37.83101752,128.7704452,"['강원', '강원도', '강릉', '강릉시', '연곡', '연곡면', '면', '신왕', '신왕길', '길']"
12,샘골낚시터,강원도 춘천시 서면  방동샘골길 35,37.91093534,127.6682809,"['강원', '강원도', '춘천', '춘천시', '서면', '방동', '방동샘골길', '샘', '골', '길', '35']"
13,하늘낚시공원낚시터,강원도 춘천시 서면 당숲안길 61,37.8363223,127.6066043,"['강원', '강원도', '춘천', '춘천시', '서면', '당', '당숲안길', '숲', '안', '길', '61']"
14,은행나무하우스낚시터,강원도 춘천시 신동면 경춘로 1773,37.82288536,127.6968575,"['강원', '강원도', '춘천', '춘천시', '신동', '신동면', '면', '경', '로', '1773']"
15,춘천실내낚시터,강원도 춘천시 공지로 210,37.86260418,127.7402415,"['강원', '강원도', '춘천', '춘천시', '공지', '210']"
16,소양계곡낚시터,강원도 춘천시 서면 율장길 266,37.86083152,127.583055,"['강원', '강원도', '춘천', '춘천시', '서면', '율장', '율장길', '길', '266']"
17,말고개낚시터,강원도 춘천시 사북면 말고개길 307,38.01347085,127.6263903,"['강원', '강원도', '춘천', '춘천시', '사북', '사북면', '면', '말고개', '말고개길', '길', '307']"
18,팔미리낚시터,강원도 춘천시 신동면 경춘로 1817,37.82101654,127.7008514,"['강원', '강원도', '춘천', '춘천시', '신동', '신동면', '면', '경', '로', '1817']"
19,은파정낚시터,강원도 춘천시 동산면 영서로 287-17,37.75582631,127.8117096,"['강원', '강원도', '춘천', '춘천시', '동산', '동산면', '면', '영서']"
20,고산낚시터,강원도 원주시 호저면 호저로 1140,37.466789,127.918048,"['강원', '강원도', '원주', '원주시', '호저', '호저면', '면', '호저', '1140']"
21,서곡낚시터,강원도 원주시 판부면 백운정길 46,37.298324,127.932703,"['강원', '강원도', '원주', '원주시', '판부', '판부면', '면', '백운', '백운정길', '정', '길', '46']"
22,추곡터널낚시터,강원도 춘천시 북산면 춘양로 1452,38.03376186,127.8763568,"['강원', '강원도', '춘천', '춘천시', '북산', '북산면', '면', '춘양', '1452']"
23,강촌체험낚시터,강원도 춘천시 남면 박암관천길 511-55,37.72123128,127.5391075,"['강원', '강원도', '춘천', '춘천시', '남면', '박', '박암관천길', '암관', '천', '길']"
24,거두리낚시터,강원도 춘천시 동내면 거두길 282-8,37.86044343,127.7888514,"['강원', '강원도', '춘천', '춘천시', '동내', '동내면', '면', '거두', '거두길', '길']"
25,유포리낚시터,강원도 춘천시 신북읍 맥국3길 15-28,37.94676571,127.7748379,"['강원', '강원도', '춘천', '춘천시', '신북', '신북읍', '맥', '맥국3길', '국', '3', '길']"
26,송어축제,"강원도 원주시 판부면 매봉길 31, 1층",37.3212032,127.9440331,"['강원', '강원도', '원주', '원주시', '판부', '판부면', '면', '매', '매봉길', '봉', '길', '31', '1', '1층', '층']"
27,이무기낚시터,강원도 원주시 소초면 신양선녀길 99,37.413059,127.972658,"['강원', '강원도', '원주', '원주시', '소초', '소초면', '면', '신양', '신양선녀길', '선녀', '길', '99']"
28,단강낚시터,강원도 원주시 부론면 섬뜰작실길 26-59,37.156403,127.790081,"['강원', '강원도', '원주', '원주시', '부론', '부론면', '면', '섬', '섬뜰작실', '뜰', '작', '실', '길']"
29,취병낚시터,강원도 원주시 문막읍 취병리 731,37.325026,127.785414,"['강원', '강원도', '원주', '원주시', '문막', '문막읍', '취병', '731']"
30,신선낚시터,강원도 원주시 한가터길 100,37.328381,128.001653,"['강원', '강원도', '원주', '원주시', '가터', '가터길', '길', '100']"
31,도곡낚시터,강원도 원주시 소초면 장수1로 191,37.396068,127.976141,"['강원', '강원도', '원주', '원주시', '소초', '소초면', '면', '장수', '장수1', '1', '191']"
32,호저낚시터,강원도 원주시 호저면 평천1길 21,37.42208,127.921589,"['강원', '강원도', '원주', '원주시', '호저', '호저면', '면', '평', '평천1길', '천', '1', '길', '21']"
33,물고기마을,강원도 원주시 흥업면 사제리 92-1,37.332017,127.894424,"['강원', '강원도', '원주', '원주시', '흥업', '흥업면', '면', '사제']"
34,탑전낚시터,강원도 원주시 문막읍 동화리 1282-7,37.332365,127.828872,"['강원', '강원도', '원주', '원주시', '문막', '문막읍', '동화']"
35,승안낚시터,강원도 원주시 흥업면 돼니길 32-39,37.314986,127.875357,"['강원', '강원도', '원주', '원주시', '흥업', '흥업면', '면', '길']"
36,돌모루낚시터,강원도 원주시 소초면 흥양리 1649-3,37.381465,127.975253,"['강원', '강원도', '원주', '원주시', '소초', '소초면', '면', '흥', '흥양리', '양리']"
37,금천가든낚시터,"강원도 태백시 금천길 159, 금천가든낚시터 (금천동)",37.094038,128.994978,"['강원', '강원도', '태백', '태백시', '금', '금천길', '천', '길', '159', '금천가든낚시터', '가든', '금천', '금천동', '동']"
38,혈리낚시터,"강원도 태백시 사내골길 117, 혈리낚시터 (혈동)",37.129695,128.925167,"['강원', '강원도', '태백', '태백시', '사내', '사내골길', '골', '길', '117', '혈', '혈리낚시터', '리', '혈동']"
39,천동낚시,강원도 평창군 평창읍 천동길 163,37.334102,128.380508,"['강원', '강원도', '평창', '평창군', '평창읍', '천동', '천동길', '길', '163']"
40,평창낚시,강원도 평창군 평창읍 등강길 44-1,37.34894,128.379776,"['강원', '강원도', '평창', '평창군', '평창읍', '등', '등강길', '강', '길']"
41,말봉바다낚시터,"경기도 안산시 단원구 부흥로 387-9, 말봉바다낚시터 (대부남동)",37.21178315,126.6119166,"['경기', '경기도', '안산', '안산시', '단원', '단원구', '부흥', '말', '말봉바다낚시터', '봉', '바다', '대부', '대부남동', '남동']"
42,어심바다낚시터,"경기도 안산시 단원구 잘푸리길 109, 어심바다낚시터 (대부남동)",37.23606522,126.5658309,"['경기', '경기도', '안산', '안산시', '단원', '단원구', '길', '109', '어심', '어심바다낚시터', '바다', '대부', '대부남동', '남동']"
43,서울바다낚시터,경기도 안산시 단원구 구봉타운길 34 (대부북동),37.28096933,126.5529941,"['경기', '경기도', '안산', '안산시', '단원', '단원구', '구봉타운길', '봉', '타운', '길', '34', '대부', '대부북동', '북동']"
44,해솔바다낚시터,"경기도 안산시 단원구 구봉길 152, 해솔바다낚시터 (대부북동)",37.27837617,126.5542115,"['경기', '경기도', '안산', '안산시', '단원', '단원구', '구봉길', '봉', '길', '152', '해', '해솔바다낚시터', '솔', '바다', '대부', '대부북동', '북동']"
45,우리실내낚시터,"경기도 안산시 단원구 화랑로 28, 우리실내바다낚시터 지하1층 (원곡동)",37.3321166,126.7960887,"['경기', '경기도', '안산', '안산시', '단원', '단원구', '화랑', '28', '우리', '실내', '실내바다낚시터', '바다', '지하', '지하1층', '1', '층', '원곡', '원곡동', '동']"
46,k3바다낚시터,"경기도 안산시 단원구 작은상재미길 86, k3바다낚시터 (대부동동)",37.25218005,126.6139694,"['경기', '경기도', '안산', '안산시', '단원', '단원구', '작', '상재', '상재미길', '미', '길', '86', '3', '3바다낚시터', '바다', '대부동', '대부동동', '동']"
47,등대바다낚시터,"경기도 안산시 단원구 금당구지길 91, 등대바다낚시터 (대부남동)",37.23054271,126.5905621,"['경기', '경기도', '안산', '안산시', '단원', '단원구', '금당', '금당구지길', '구지', '길', '91', '등대', '등대바다낚시터', '바다', '대부', '대부남동', '남동']"
48,k1한국바다낚시터,"경기도 안산시 단원구 작은상재미길 100, k1한국바다낚시터 (대부동동)",37.23095285,126.6070119,"['경기', '경기도', '안산', '안산시', '단원', '단원구', '작', '상재', '상재미길', '미', '길', '100', '1', '1한국바다낚시터', '한국', '바다', '대부동', '대부동동', '동']"
49,북동낚시터,"경기도 안산시 단원구 뻐꾹산길 98, 북동낚시터 (대부북동)",37.25690318,126.5810408,"['경기', '경기도', '안산', '안산시', '단원', '단원구', '산길', '98', '북동', '북동낚시터', '대부', '대부북동']"
50,조부장바다낚시터,"경기도 안산시 단원구 구봉길 55, 조부장바다낚시터 (대부북동)",37.27139676,126.5618899,"['경기', '경기도', '안산', '안산시', '단원', '단원구', '구봉길', '봉', '길', '55', '조', '조부장바다낚시터', '부장', '바다', '대부', '대부북동', '북동']"
51,대부도바다낚시터,"경기도 안산시 단원구 구봉타운길 22, 대부도바다낚시터 (대부북동)",37.27772841,126.5516876,"['경기', '경기도', '안산', '안산시', '단원', '단원구', '구봉타운길', '봉', '타운', '길', '22', '대부도', '대부도바다낚시터', '바다', '대부', '대부북동', '북동']"
52,수암낚시터,"경기도 안산시 상록구 지장골길 51-18, 수암낚시터 (수암동)",37.37232031,126.8808464,"['경기', '경기도', '안산', '안산시', '상록', '상록구', '지장', '지장골길', '골', '길', '암', '암낚시터', '수암', '수암동', '동']"
53,독도바다낚시터,"경기도 안산시 단원구 새방죽길 165, 독도바다낚시터 (대부북동)",37.23985943,126.5660486,"['경기', '경기도', '안산', '안산시', '단원', '단원구', '방죽', '방죽길', '길', '165', '독도', '독도바다낚시터', '바다', '대부', '대부북동', '북동']"
54,하늘바다낚시터,"경기도 안산시 단원구 작은상재미길 99, 하늘바다낚시터 (대부동동)",37.23338146,126.6077971,"['경기', '경기도', '안산', '안산시', '단원', '단원구', '작', '상재', '상재미길', '미', '길', '99', '하늘', '하늘바다낚시터', '바다', '대부동', '대부동동', '동']"
55,못말낚시터,경기도 양주시 남면 현석로 781-14,37.85149836,126.9821002,"['경기', '경기도', '양주', '양주시', '남면', '현', '현석로', '석로']"
56,용암낚시터,경기도 양주시 은현면 용암리 346-2,37.85284499,127.0500455,"['경기', '경기도', '양주', '은현', '은현면', '면', '용암']"
57,살구골낚시터,경기도 양주시 은현면 도하리 396,37.84001046,127.0042246,"['경기', '경기도', '양주', '은현', '은현면', '면', '도하', '396']"
58,신암낚시터,경기도 양주시 남면 감악산로 514번길 365,37.91971034,126.9640752,"['경기', '경기도', '양주', '양주시', '남면', '감악산', '514', '514번길', '번', '길', '365']"
59,남방낚시터,경기도 양주시 양주산성로 280-7,37.77576379,127.0180123,"['경기', '경기도', '양주', '양주시', '양주산성', '산성']"
60,효촌낚시터,경기도 양주시 광적면 효촌리 337-1,37.87937325,126.9561064,"['경기', '경기도', '양주', '광적', '광적면', '면', '효', '효촌리', '촌리']"
61,봉암낚시터,경기도 양주시 남면 양연로173번길 82-28,37.9234617,126.994659,"['경기', '경기도', '양주', '양주시', '남면', '양', '양연로173번', '연로', '173', '번', '길']"
62,원당,경기도 양주시 남면 황방리 377-1,37.92235363,126.9869436,"['경기', '경기도', '양주', '양주시', '남면', '황', '황방리', '방리']"
63,칠봉산,경기도 양주시 천보산로 201,37.85687137,127.0985831,"['경기', '경기도', '양주', '천보', '천보산로', '산로', '201']"
64,광사,경기도 양주시 부흥로 1864-40,37.7885519,127.0709504,"['경기', '경기도', '양주', '양주시', '부흥']"
65,동산,경기도 양주시 남면 감악산로514번길 54-20,37.90829399,126.9653998,"['경기', '경기도', '양주', '양주시', '남면', '감악산', '514', '514번길', '번', '길']"
66,장자원,경기도 양주시 장흥면 일영로502번길 2-105,37.68574374,126.9285218,"['경기', '경기도', '양주', '장흥', '장흥면', '면', '일영', '502', '502번길', '번', '길']"
67,은현피싱타운,경기도 양주시 은현면 그루고개로490번길 49-27,37.85146262,127.0157938,"['경기', '경기도', '양주', '은현', '은현면', '면', '그루', '그루고개', '고개', '490', '490번길', '번', '길']"
68,삼하,"경기도 양주시 장흥면 삼하리 198-1,3,4",37.67330775,126.9088062,"['경기', '경기도', '양주', '장흥', '장흥면', '면', '삼하', '3', '4']"
69,송추,경기도 양주시 장흥면 호국로 586-24,37.7177652,126.9792169,"['경기', '경기도', '양주', '장흥', '장흥면', '면', '호', '호국로', '국로']"
70,일영낚시터,경기도 양주시 장흥면 일영리 572-4,37.70596996,126.9315963,"['경기', '경기도', '양주', '장흥', '장흥면', '면', '일', '일영리', '영리']"
71,원동낚시터,경기도 오산시 원동 6-1,37.144601,127.091246,"['경기', '경기도', '오산', '오산시', '원동']"
72,삼미낚시터,경기도 오산시 외삼미로 30(외삼미동),37.19051,127.054368,"['경기', '경기도', '오산', '오산시', '외', '외삼미', '삼미', '30', '외삼미', '외삼미동', '동']"
73,수원 락 실내바다 낚시터,경기도 오산시 삼미로47번길 24(내삼미동),37.1771766,127.066976,"['경기', '경기도', '오산', '오산시', '삼미', '47', '47번길', '번', '길', '24', '내삼미', '내삼미동', '동']"
74,자일낚시터,경기도 의정부시 호국로1860번길 79,37.77156,127.105302,"['경기', '경기도', '의정부', '의정부시', '호', '호국로1860번', '국로', '1860', '번', '길', '79']"
75,가자실내낚시터,경기도 의정부시 시민로 117(의정부동),37.738678,127.04832,"['경기', '경기도', '의정부', '의정부시', '시민', '117', '의정부동', '동']"
76,또또와 실내낚시카페,경기도 의정부시 추동로19번길 7,37.743652,127.057607,"['경기', '경기도', '의정부', '의정부시', '추동', '19', '19번길', '번', '길', '7']"
77,월곡낚시터,경기도 평택시 관동길 20,37.021253,127.130075,"['경기', '경기도', '평택', '평택시', '관동', '관동길', '길', '20']"
78,고잔낚시터,경기도 평택시 청북읍 고잔리 1-1,37.067541,126.909627,"['경기', '경기도', '평택', '평택시', '청', '청북읍', '북', '잔', '잔리', '리']"
79,울성낚시터,경기도 평택시 울성길 237-20,37.016293,127.05912,"['경기', '경기도', '평택', '평택시', '울']"
80,동막낚시터,경기도 평택시 동막길 127,37.074396,127.096081,"['경기', '경기도', '평택', '평택시', '동', '길', '127']"
81,고현낚시터,경기도 평택시 고현길 38-48,37.130793,127.096181,"['경기', '경기도', '평택', '평택시', '고현', '고현길', '길']"
82,조씨낚시터,경기도 평택시 덕목5길 117-1,36.9542,126.969356,"['경기', '경기도', '평택', '평택시', '덕목', '덕목5길', '5', '길']"
83,함박골낚시터,경기도 평택시 서탄로 492-30,37.123234,127.0214,"['경기', '경기도', '평택', '평택시', '탄로']"
84,낚시 훈련소,경기도 평택시 문화촌로 9,36.996613,127.113874,"['경기', '경기도', '평택', '평택시', '문화', '문화촌로', '촌로', '9']"
85,안중락실내바다낚시터,경기도 평택시 안중읍 서동대로 1758,36.0,126.0,"['경기', '경기도', '평택', '평택시', '안', '안중읍', '중', '서동', '1758']"
86,피쉬실내바다낚시터,경기도 평택시 포승읍 고렴1길 35,37.0,126.0,"['경기', '경기도', '평택', '평택시', '포승', '포승읍', '1', '1길', '길', '35']"
87,부림낚시터(부림저수지),경기도 양평군 개군면 불곡덕고갯길 134-66,37.43924011,127.5477091,"['경기', '경기도', '양평', '양평군', '개군', '개군면', '면', '곡', '곡덕고갯길', '덕', '고갯길']"
88,수곡낚시터(어은저수지),경기도 양평군 지평면 어은길 71,37.44059045,127.5999993,"['경기', '경기도', '양평', '양평군', '지평면', '은', '은길', '길', '71']"
89,월산낚시터(월산저수지),경기도 양평군 지평면 월산리 525,37.47269801,127.6511908,"['경기', '경기도', '양평', '양평군', '지평면', '월산', '525']"
90,백동낚시터(백동저수지),경기도 양평군 단월면 덕수리 20,37.56063061,127.6867879,"['경기', '경기도', '양평', '양평군', '단월', '단월면', '면', '덕', '덕수리', '수리', '20']"
91,그린낚시터(전수저수지),경기도 양평군 강하면 수대길 110,37.48031275,127.4263199,"['경기', '경기도', '양평', '양평군', '강하', '강하면', '면', '수', '수대길', '대길', '110']"
92,신애낚시터,경기도 양평군 양평읍 새만이길 86,37.51020947,127.4959266,"['경기', '경기도', '양평', '양평군', '양평읍', '새', '새만이길', '만이', '길', '86']"
93,오빈낚시터(오빈저수지),경기도 양평군 양평읍 덕평리 414-8,37.50612798,127.4898977,"['경기', '경기도', '양평', '양평군', '양평읍', '덕', '덕평', '평']"
94,대석낚시터(대석저수지),경기도 양평군 강상면 강남로 1811,37.4269477,127.4777729,"['경기', '경기도', '양평', '양평군', '강', '강상', '강상면', '상면', '면', '강남', '1811']"
95,향리낚시터(향리저수지),경기도 양평군 개군면 아랫상골길 45,37.43479102,127.5667369,"['경기', '경기도', '양평', '양평군', '개군', '개군면', '면', '랫', '랫상골길', '상골', '길', '45']"
96,세월낚시터,경기도 양평군 강상면 세월리 586-2,37.44519278,127.4805659,"['경기', '경기도', '양평', '양평군', '강', '강상', '강상면', '상면', '면', '세월']"
97,대명낚시터,경기도 양평군 단월면 소부록길 35,37.56866935,127.6741137,"['경기', '경기도', '양평', '양평군', '단월', '단월면', '면', '소', '소부록길', '부록', '길', '35']"
98,피쉬랜드낚시터,경기도 양평군 강하면 강하2로 367,37.46486201,127.4205487,"['경기', '경기도', '양평', '양평군', '강하', '강하면', '면', '강하', '강하2', '2', '367']"
99,고재낚시터,경기도 양평군 지평면 고재길 108,37.42743942,127.606234,"['경기', '경기도', '양평', '양평군', '지평면', '고재', '고재길', '길', '108']"
100,유일실내낚시터,경기도 양평군 용문면 용문로 537,37.49816528,127.6041257,"['경기', '경기도', '양평', '양평군', '용문', '용문면', '면', '용문', '537']"
101,이화,경기도 김포시 고촌읍 태리 584-3,37.59474754,126.7371851,"['경기', '경기도', '김포', '김포시', '고촌', '고촌읍', '태']"
102,그린,경기도 김포시 고촌읍 인향로210번길 52,37.58613284,126.7550609,"['경기', '경기도', '김포', '김포시', '고촌', '고촌읍', '향로', '향로210번길', '210', '번', '길', '52']"
103,대원,경기도 김포시 통진읍 옹정리 168,37.69198293,126.5633697,"['경기', '경기도', '김포', '김포시', '통', '통진읍', '진', '옹', '옹정리', '정리', '168']"
104,구래,경기도 김포시 양촌읍 김포한강8로 100-59,37.6299166,126.6393915,"['경기', '경기도', '김포', '김포시', '촌', '촌읍', '김', '김포', '포', '강', '강8', '8']"
105,태리,"경기도 김포시 고촌읍 태리 195-1, 196",37.59677976,126.7476294,"['경기', '경기도', '김포', '김포시', '고촌', '고촌읍', '태', '196']"
106,조강,경기도 김포시 월곶면 조강리 230-10번지 외 20필지,37.74525183,126.5719274,"['경기', '경기도', '김포', '김포시', '월곶', '월곶면', '면', '조강', '번지', '외', '20', '20필지', '필지']"
107,김포실내바다낚시터,경기도 김포시 대곶면 대곶서로 283-25,37.64514736,126.5806472,"['경기', '경기도', '김포', '김포시', '대곶', '대곶면', '면', '대']"
108,김포,"경기도 김포시 하성면 양택리 91, 125, 125-1, -3, -4, -5",37.73401049,126.622395,"['경기', '경기도', '김포', '김포시', '하성', '하성면', '면', '양택', '양택리', '리', '91', '125', '-3', '-4', '-5']"
109,고정,경기도 김포시 통진읍 고척로 104,37.71745781,126.5874016,"['경기', '경기도', '김포', '김포시', '통진읍', '척', '척로', '로', '104']"
110,고막낚시터,경기도 김포시 월곶면 애기봉로 85-12,37.72184279,126.5581979,"['경기', '경기도', '김포', '김포시', '월곶', '월곶면', '면', '애기', '애기봉로', '봉로']"
111,아리수,"경기도 김포시 하성면 후평리 42, 45",37.74917318,126.6513078,"['경기', '경기도', '김포', '김포시', '하성', '하성면', '면', '후', '후평리', '평', '리', '42', '45']"
112,김포 피싱존,경기도 김포시 양촌읍 석모로44번길 93,37.65637157,126.6470106,"['경기', '경기도', '김포', '김포시', '촌', '촌읍', '석모', '44', '44번길', '번', '길', '93']"
113,드림바다실내낚시터,경기도 김포시 풍무로9번길 26,37.59759729,126.7201017,"['경기', '경기도', '김포', '김포시', '풍', '풍무로9번', '무로', '9', '번', '길', '26']"
114,해적왕실내낚시카페,"경기도 수원시 팔달구 효원로307번길 47, 지하1층(인계동, 문화빌딩)",37.26302406,127.0359218,"['경기', '경기도', '수원', '수원시', '팔달', '팔달구', '효', '효원로307번', '원로', '307', '번', '길', '47', '지하', '지하1층', '1', '층', '계동', '문화', '문화빌딩', '빌딩']"
115,수원실내낚시터,"경기도 수원시 권선구 권선로 652, 지하1층(권선동)",37.26012603,127.0224305,"['경기', '경기도', '수원', '수원시', '권선', '권선구', '권', '권선로', '선로', '652', '지하', '지하1층', '1', '층', '권선동', '동']"
116,도심어부,"경기도 수원시 영통구 영통로 232, 지하1층(영통동, 제2상가동)",37.24841817,127.0584843,"['경기', '경기도', '수원', '수원시', '영통', '영통구', '영', '영통로', '통로', '232', '지하', '지하1층', '1', '층', '영통동', '동', '저', '2', '2상가동', '상', '가동']"
117,잉어킹낚시카페,"경기도 수원시 팔달구 경수대로446번길 56, 지하1층",37.26502616,127.0294519,"['경기', '경기도', '수원', '수원시', '팔달', '팔달구', '경수', '446', '446번길', '번', '길', '56', '지하', '지하1층', '1', '층']"
118,청춘물고기,"경기도 수원시 팔달구 향교로1번길 22-15, 지하1층",37.2691271,127.0008509,"['경기', '경기도', '수원', '수원시', '팔달', '팔달구', '향교', '1', '1번길', '번', '길', '지하', '지하1층', '층']"
119,방산 낚시터,경기도 시흥시 구수미1길127-14,37.42303,126.77788,"['경기', '경기도', '시흥', '시흥시', '구수', '구수미1길', '미', '1', '길']"
120,한샘청수낚시터,경기도 시흥시 수인로2107번길35,37.37045,126.87239,"['경기', '경기도', '시흥', '시흥시', '수인', '수인로2107번', '로', '2107', '번', '길', '길35', '35']"
121,과림 낚시터,경기도 시흥시 과림저수지길 79,37.45313,126.82729,"['경기', '경기도', '시흥', '시흥시', '과', '저수지', '저수지길', '길', '79']"
122,금이 낚시터,경기도 시흥시 금이진말길 159,37.39915,126.8295,"['경기', '경기도', '시흥', '시흥시', '금', '금이진말길', '이진', '말길', '159']"
123,뒷방울 낚시터,경기도 시흥시 뒷방울길 147,37.37137,126.74866,"['경기', '경기도', '시흥', '시흥시', '뒷', '뒷방울길', '방울', '길', '147']"
124,청용 낚시터,경기도 시흥시 청룡저수지길 216,37.42252,126.76005,"['경기', '경기도', '시흥', '시흥시', '청룡', '청룡저수지길', '저수지', '길', '216']"
125,달월 낚시터,경기도 시흥시 군자로 125-39,37.37245,126.77062,"['경기', '경기도', '시흥', '시흥시', '군자']"
126,칠리제 낚시터,경기도 시흥시 수인로 2564-8,37.40337,126.84862,"['경기', '경기도', '시흥', '시흥시', '수인']"
127,샘골 낚시터,경기도 시흥시 신흥마을5길 32-21,37.43943,126.77225,"['경기', '경기도', '시흥', '시흥시', '신흥', '신흥마을5길', '마을', '5', '길']"
128,한탄강 낚시터,경기도 시흥시 수인로 2495-1,37.3995,126.85366,"['경기', '경기도', '시흥', '시흥시', '수인']"
129,약수 낚시터,경기도 시흥시 동서로 989-32,37.38157,126.85253,"['경기', '경기도', '시흥', '시흥시', '동서']"
130,계수 낚시터,경기도 시흥시 구미1길 33,37.4516,126.80476,"['경기', '경기도', '시흥', '시흥시', '구미', '구미1길', '1', '길', '33']"
131,지오낚시터,경기도 연천군 군남면 청정로 2060,38.04319586,127.0296004,"['경기', '경기도', '연천', '연천군', '군', '군남', '군남면', '남면', '면', '청', '청정로', '정로', '2060']"
132,삼화리낚시터,경기도 연천군 미산면 삼화2길 96,38.01270377,126.9767416,"['경기', '경기도', '연천', '연천군', '미산', '미산면', '면', '삼화', '삼화2길', '2', '길', '96']"
133,양원리낚시터,경기도 연천군 전곡읍 양원로 108-37,37.98743059,127.021049,"['경기', '경기도', '연천', '연천군', '전곡', '전곡읍', '양원']"
134,전곡낚시터,경기도 연천군 군남면 오리골길 124,38.03704578,127.03402,"['경기', '경기도', '연천', '연천군', '군', '군남', '군남면', '남면', '면', '오리', '오리골길', '골', '길', '124']"
135,한탄강낚시터,경기도 연천군 전곡읍 평화로495번길 16-31,38.01517959,127.0675997,"['경기', '경기도', '연천', '연천군', '전곡', '전곡읍', '평화', '495', '495번길', '번', '길']"
136,백학낚시터,경기도 연천군 백학면 저수지길 21,38.032232,126.9250483,"['경기', '경기도', '연천', '연천군', '백학', '백학면', '면', '저수지', '저수지길', '길', '21']"
137,놀러와실내낚시카페,"경기도 안산시 상록구 샘골로 159, 창원빌딩 지하1층 2~3호 (본오동)",37.2980656,126.862948,"['경기', '경기도', '안산', '안산시', '상록', '상록구', '샘', '샘골', '골', '159', '창원', '창원빌딩', '빌딩', '지하', '지하1층', '1', '층', '2', '3', '3호', '호', '본오', '본오동', '동']"
138,낚시존낚시카페,"경기도 안산시 단원구 고잔로 76, 영풍빌딩 지하1층 37~41호 (고잔동)",37.3188909,126.8348385,"['경기', '경기도', '안산', '안산시', '단원', '단원구', '잔', '76', '영풍', '영풍빌딩', '빌딩', '지하', '지하1층', '1', '층', '37', '41', '41호', '호', '고잔', '고잔동', '동']"
139,꾼낚시카페,"경기도 안산시 단원구 고잔2길 38, 중앙상가 지하층 1,2,3호 (고잔동)",37.31756622,126.8353289,"['경기', '경기도', '안산', '안산시', '단원', '단원구', '잔', '잔2길', '2', '길', '38', '중앙', '중앙상가', '상가', '지하층', '1', '3', '3호', '호', '고잔', '고잔동', '동']"
140,쉼터 낚시터,경기도 시흥시 하중로 281,37.38821,126.80687,"['경기', '경기도', '시흥', '시흥시', '하중', '281']"
141,능곡 낚시터,경기도 시흥시 시흥대로268번길 50-28,37.36146,126.81064,"['경기', '경기도', '시흥', '시흥시', '시흥', '268', '268번길', '번', '길']"
142,군자 낚시터,경기도 시흥시 시흥대로216-18,37.35995,123.80808,"['경기', '경기도', '시흥', '시흥시', '시흥']"
143,산정 낚시터,경기도 시흥시 피울길 173,37.36794,126.82918,"['경기', '경기도', '시흥', '시흥시', '길', '173']"
144,까치 낚시터,경기도 시흥시 수인로2107번길 146,37.36734,126.86603,"['경기', '경기도', '시흥', '시흥시', '수인', '수인로2107번', '로', '2107', '번', '길', '146']"
145,청춘바다낚시,경기도 시흥시 오동마을로6번길 21,37.35224,126.74325,"['경기', '경기도', '시흥', '시흥시', '오동', '오동마을', '마을', '6', '6번길', '번', '길', '21']"
146,달월사계절 낚시터,경기도 시흥시 군자로 125-5,37.37326,126.76863,"['경기', '경기도', '시흥', '시흥시', '군자']"
147,새미 낚시터,경기도 시흥시 조남동 299,37.37363,126.86493,"['경기', '경기도', '시흥', '시흥시', '조남', '조남동', '동', '299']"
148,시흥드림바다 낚시터,경기도 시흥시 황고개로293번길 7,37.35766,126.78533,"['경기', '경기도', '시흥', '시흥시', '황', '황고개', '고개', '293', '293번길', '번', '길', '7']"
149,신천자연 낚시터,경기도 시흥시 두문로71번길 18-5,37.43211,126.78494,"['경기', '경기도', '시흥', '시흥시', '문로', '문로71번길', '71', '번', '길']"
150,왕골 낚시터,"경기도 시흥시 조남동 492-1, 492-2",37.36567,126.85757,"['경기', '경기도', '시흥', '시흥시', '조남', '조남동', '동']"
151,당골낚시터,경기도 화성시 장안면 장안리 35 외 6필지,37.05532018,126.8664096,"['경기', '경기도', '화성', '화성시', '장안', '장안면', '면', '장안', '장안리', '리', '35', '외', '6', '6필지', '필지']"
152,화성대어낚시터,경기도 화성시 비봉면 비봉로528번길 40,37.26042685,126.8529977,"['경기', '경기도', '화성', '화성시', '비봉', '비봉면', '면', '비봉', '528', '528번길', '번', '길', '40']"
153,용주골낚시터,경기도 화성시 황계남길 15,37.21157743,127.0086725,"['경기', '경기도', '화성', '화성시', '황', '15']"
154,기천낚시터,경기도 화성시 봉담읍 건달산로 309-33,37.19629691,126.9117052,"['경기', '경기도', '화성', '화성시', '봉담', '봉담읍', '건달', '건달산로', '산로']"
155,남전낚시터,경기도 화성시 비봉면 남이로132번길 79-13,37.23857033,126.8347166,"['경기', '경기도', '화성', '화성시', '비봉', '비봉면', '면', '남', '남이로132번', '이로', '132', '번', '길']"
156,관리낚시터,경기도 화성시 향남읍 동오리 545-1 외 3필지,37.13297478,126.9457119,"['경기', '경기도', '화성', '화성시', '향남', '향남읍', '동', '동오리', '오리', '외', '3', '3필지', '필지']"
157,버들낚시터,경기도 화성시 장안면 버들안길 3,37.12872541,126.8353876,"['경기', '경기도', '화성', '화성시', '장안', '장안면', '면', '버들', '버들안길', '안', '길', '3']"
158,어천낚시터,경기도 화성시 매송면 어사로 47,37.25528976,126.9144635,"['경기', '경기도', '화성', '화성시', '매송', '매송면', '면', '어사', '47']"
159,새봉낚시터,경기도 화성시 정남면 세자로303번길 46,37.1947972,126.9760645,"['경기', '경기도', '화성', '화성시', '정남', '정남면', '면', '세자', '303', '303번길', '번', '길', '46']"
160,신촌낚시터,경기도 화성시 매송면 매송북길 179,37.28422966,126.9017887,"['경기', '경기도', '화성', '화성시', '매송', '매송면', '면', '매', '매송북길', '송', '북', '길', '179']"
161,조암낚시터,경기도 화성시 우정읍 한뿌리1길 157-25,37.09650621,126.8021179,"['경기', '경기도', '화성', '화성시', '우정', '우정읍', '뿌리', '뿌리1길', '1', '길']"
162,송라낚시터,경기도 화성시 매송면 매송북길 179,37.28422966,126.9017887,"['경기', '경기도', '화성', '화성시', '매송', '매송면', '면', '매', '매송북길', '송', '북', '길', '179']"
163,동방낚시터,경기도 화성시 팔탄면 노하길116번길 198,37.15153123,126.8634678,"['경기', '경기도', '화성', '화성시', '팔탄', '팔탄면', '면', '노', '116', '116번길', '번', '길', '198']"
164,안석낚시터,경기도 화성시 남양읍 활초길 214-17,37.16005343,126.8344179,"['경기', '경기도', '화성', '화성시', '남양', '남양읍', '활', '활초길', '초길']"
165,은수포낚시터,경기도 화성시 서신면 은수포길 194,37.19982403,126.6914026,"['경기', '경기도', '화성', '화성시', '서신', '서신면', '면', '수포', '수포길', '길', '194']"
166,덕우낚시터,경기도 화성시 봉담읍 삼천병마로 709,37.17108351,126.9358869,"['경기', '경기도', '화성', '화성시', '봉담', '봉담읍', '삼천', '삼천병마', '병마', '709']"
167,초당낚시터,경기도 화성시 봉담읍 주석로 891-21,37.20057681,126.911655,"['경기', '경기도', '화성', '화성시', '봉담', '봉담읍', '주석']"
168,성지골낚시터,경기도 화성시 서신면 장외리 214-2 외 4필지,37.17196949,126.6702362,"['경기', '경기도', '화성', '화성시', '서신', '서신면', '면', '장외', '외', '4', '4필지', '필지']"
169,양석낚시터,경기도 화성시 향남읍 하길리 504-1 외 2필지,37.10886824,126.9240506,"['경기', '경기도', '화성', '화성시', '향남', '향남읍', '리', '외', '2', '2필지', '필지']"
170,스타바다좌대낚시터,경기도 화성시 서신면 송교리 405-1 외 1필지,37.1705191,126.6577333,"['경기', '경기도', '화성', '화성시', '서신', '서신면', '면', '송', '송교리', '교리', '외', '1', '1필지', '필지']"
171,서신레저바다낚시터,경기도 화성시 서신면 화남공단로 79,37.16170633,126.6814562,"['경기', '경기도', '화성', '화성시', '서신', '서신면', '면', '화남', '화남공단로', '공단', '로', '79']"
172,국화도좌대낚시터,경기도 화성시 우정읍 국화길 2,37.06090765,126.5593612,"['경기', '경기도', '화성', '화성시', '우정', '우정읍', '국화', '국화길', '길', '2']"
173,청춘바다낚시터,경기도 화성시 우정읍 국화리 산 4,37.10525104,126.5398058,"['경기', '경기도', '화성', '화성시', '우정', '우정읍', '국화', '국화리', '리', '산', '4']"
174,매송낚시터,경기도 화성시 매송면 매송로330번길 50,37.26439417,126.8864237,"['경기', '경기도', '화성', '화성시', '매송', '매송면', '면', '매', '매송로330번', '송로', '330', '번', '길', '50']"
175,죠스실내낚시카페,경기도 화성시 효행로 1051,37.21465039,127.0417616,"['경기', '경기도', '화성', '화성시', '효', '효행로', '행로', '1051']"
176,화성락실내바다낚시터,경기도 화성시 봉담읍 하가등리 379-12,37.14559335,126.9308477,"['경기', '경기도', '화성', '화성시', '봉담', '봉담읍', '하가', '하가등리', '등리']"
177,월문낚시터,경기도 남양주시 와부읍 수레로661번안길 95,37.6247,127.2759,"['경기', '경기도', '남양주', '남양주시', '와부', '와부읍', '수레', '661', '661번', '번', '길', '95']"
178,남양낚시터,경기도 남양주시 와부읍 석실로592번길 60,37.6155,127.2162,"['경기', '경기도', '남양주', '남양주시', '와부', '와부읍', '석실', '592', '592번길', '번', '길', '60']"
179,창포연못낚시터,경기도 남양주시 진건우회로120번길 82-2,37.6454,127.1834,"['경기', '경기도', '남양주', '남양주시', '진', '우회로', '우회로120번길', '120', '번', '길']"
180,경춘낚시터,경기도 남양주시 경춘로답내1길 122,37.6626,127.3377,"['경기', '경기도', '남양주', '남양주시', '경', '로', '로답내1', '답', '내', '1', '길', '122']"
181,헤라낚시터,경기도 남양주시 별내면 청학로54번길 83,37.7126,127.1251,"['경기', '경기도', '남양주', '남양주시', '별내', '별내면', '면', '청학', '54', '54번길', '번', '길', '83']"
182,수동그린낚시터,경기도 남양주시 수동면 지둔로 71-27,37.7015,127.3186,"['경기', '경기도', '남양주', '남양주시', '수동', '수동면', '면', '지둔']"
183,천지연낚시터,경기도 남양주시 고래산로 274,37.5988,127.2874,"['경기', '경기도', '남양주', '남양주시', '고래', '고래산로', '산로', '274']"
184,늘푸른낚시터,경기도 남양주시 별내면 청학로48번길 29-13,37.7059,127.1238,"['경기', '경기도', '남양주', '남양주시', '별내', '별내면', '면', '청학', '48', '48번길', '번', '길']"
185,숲속낚시터,경기도 남양주시 식송1로 254-72,37.6619,127.1085,"['경기', '경기도', '남양주', '남양주시', '식', '식송1', '송', '1']"
186,초원 낚시터,경기도 남양주시 석실로408번길 142,37.6132,127.2203,"['경기', '경기도', '남양주', '남양주시', '석실', '408', '408번길', '번', '길', '142']"
187,남양주 실내 바다낚시터,경기도 남양주시 진접읍 금강로 1857,37.75,127.2097,"['경기', '경기도', '남양주', '남양주시', '진접', '진접읍', '금강', '1857']"
188,남양주 락 실내바다 낚시터,경기도 남양주시 고재로 143,37.6351,127.1784,"['경기', '경기도', '남양주', '남양주시', '고재', '143']"
189,실내바다낚시터,경기도 남양주시 진접읍 경복대로 485,37.7383,127.2151,"['경기', '경기도', '남양주', '남양주시', '진접', '진접읍', '경복', '485']"
190,왕골낚시터,"경기도 시흥시 조남동 492-1, 492-2",37.36567,126.85757,"['경기', '경기도', '시흥', '시흥시', '조남', '조남동', '동']"
191,밤밭,경기도 포천시 가산면 포천로 912번길 143-94,37.84250079,127.2136439,"['경기', '경기도', '포', '포천시', '천시', '가산', '가산면', '면', '포천로', '천로', '912', '912번길', '번', '길']"
192,가산낚시터,경기도 포천시 가산면 우금길 13-32,37.82549928,127.2125165,"['경기', '경기도', '포', '포천시', '천시', '가산', '가산면', '면', '우금', '우금길', '길']"
193,중리테마파크,경기도 포천시 관인면 지장산길 65,38.10167638,127.1992908,"['경기', '경기도', '포', '포천시', '천시', '관인', '관인면', '면', '지장', '지장산길', '산길', '65']"
194,금주,경기도 포천시 영중면 물안길 135,37.97376415,127.2701662,"['경기', '경기도', '포', '포천시', '천시', '영중', '영중면', '면', '물', '물안길', '안', '길', '135']"
195,지청,경기도 포천시 일동면 청지로 150-41,37.95845374,127.3300224,"['경기', '경기도', '포', '포천시', '천시', '일동', '일동면', '면', '청', '청지로', '지로']"
196,마전,경기도 포천시 가산면 마전길 129-1,37.84907203,127.2139254,"['경기', '경기도', '포', '포천시', '천시', '가산', '가산면', '면', '마전', '마전길', '길']"
197,용담대물,경기도 포천시 관인면 사정리 384-3,38.13744071,127.2617286,"['경기', '경기도', '포', '포천시', '천시', '관인', '관인면', '면', '사', '사정리', '정리']"
198,직두리,경기도 포천시 군내면 진구자리1길 14,37.87725794,127.2300427,"['경기', '경기도', '포', '포천시', '천시', '군내', '군내면', '면', '진구', '진구자리1길', '자리', '1', '길', '14']"
199,새마을,경기도 포천시 군내면 좌의길 79,37.86264904,127.2152827,"['경기', '경기도', '포', '포천시', '천시', '군내', '군내면', '면', '좌', '길', '79']"
200,무네미,경기도 포천시 군내면 유교리 88번길 43,37.86690636,127.1949493,"['경기', '경기도', '포', '포천시', '천시', '군내', '군내면', '면', '유', '유교리', '교리', '88', '88번길', '번', '길', '43']"
201,내촌,경기도 포천시 내촌면 내진로 30번길 64,37.7872828,127.2235448,"['경기', '경기도', '포', '포천시', '천시', '내촌', '내촌면', '면', '내', '내진로', '진로', '30', '30번길', '번', '길', '64']"
202,동교,경기도 포천시 동교동 670-3,37.85092126,127.1224802,"['경기', '경기도', '포', '포천시', '천시', '동교', '동교동', '동']"
203,수목원레저,경기도 포천시 소흘읍 직동길 28,37.76563953,127.1700127,"['경기', '경기도', '포', '포천시', '천시', '소', '소흘읍', '흘', '직동', '직동길', '길', '28']"
204,황금연못,경기도 포천시 신북면 포천로 2371,37.96116913,127.1933304,"['경기', '경기도', '포', '포천시', '천시', '신북', '신북면', '면', '포천로', '천로', '2371']"
205,태산,경기도 포천시 영북면 호국로 3421번길 8,38.04295578,127.2655168,"['경기', '경기도', '포', '포천시', '천시', '영', '영북', '영북면', '북면', '면', '호', '호국로', '국로', '3421', '3421번길', '번', '길', '8']"
206,초원,경기도 포천시 자작동 자작로3길85,37.87683209,127.1691193,"['경기', '경기도', '포', '포천시', '천시', '자작', '자작동', '동', '자작', '3', '3길85', '길', '85']"
207,우금,경기도 포천시 가산면 우금6길 43-44,37.84002891,127.2164266,"['경기', '경기도', '포', '포천시', '천시', '가산', '가산면', '면', '우금', '우금6길', '6', '길']"
208,밤밭실내낚시터,경기도 포천시 가산면 포천로 912번길 143-94,37.84250079,127.2136439,"['경기', '경기도', '포', '포천시', '천시', '가산', '가산면', '면', '포천로', '천로', '912', '912번길', '번', '길']"
209,동교실내,경기도 포천시 동교동 원동교길 268,37.85123047,127.1226637,"['경기', '경기도', '포', '포천시', '천시', '동교', '동교동', '동', '원동', '원동교길', '교', '길', '268']"
210,수목원,경기도 포천시 소흘읍 직동리 80-4,37.76614895,127.1690342,"['경기', '경기도', '포', '포천시', '천시', '소', '소흘읍', '흘', '직', '직동리', '동리']"
211,금강,경기도 포천시 일동면 새낭로 66,37.98426442,127.3346887,"['경기', '경기도', '포', '포천시', '천시', '일동', '일동면', '면', '낭', '낭로', '로', '66']"
212,고일,경기도 포천시 신북면 포천로 2721번길 157,37.97524619,127.1728453,"['경기', '경기도', '포', '포천시', '천시', '신북', '신북면', '면', '포천로', '천로', '2721', '2721번길', '번', '길', '157']"
213,길명,경기도 포천시 일동면 영일로 316,37.94734418,127.2596293,"['경기', '경기도', '포', '포천시', '천시', '일동', '일동면', '면', '영', '영일로', '일로', '316']"
214,운천낚시공원,경기도 포천시 영북면 호국로 4350번길 136-204,38.09911938,127.2972835,"['경기', '경기도', '포', '포천시', '천시', '영', '영북', '영북면', '북면', '면', '호', '호국로', '국로', '4350', '4350번길', '번', '길']"
215,노진낚시터,경기도 화성시 장안면 노진리 1467 외 2필지,37.02226239,126.8152478,"['경기', '경기도', '화성', '화성시', '장안', '장안면', '면', '노', '노진리', '진리', '1467', '외', '2', '2필지', '필지']"
216,대성낚시터,경기도 화성시 팔탄면 녹막말길9번길 199,37.17188889,126.8660989,"['경기', '경기도', '화성', '화성시', '팔탄', '팔탄면', '면', '녹', '말길', '말길9번길', '9', '번', '길', '199']"
217,국화리해상좌대낚시터,경기도 화성시 우정읍 국화길 2,37.06090765,126.5593612,"['경기', '경기도', '화성', '화성시', '우정', '우정읍', '국화', '국화길', '길', '2']"
218,청춘낚시터,경기도 화성시 우정읍 국화리 산 4,37.10525104,126.5398058,"['경기', '경기도', '화성', '화성시', '우정', '우정읍', '국화', '국화리', '리', '산', '4']"
219,송라손맛터,경기도 화성시 매송면 송라리 380-1 외 2필지,37.281175,126.895676,"['경기', '경기도', '화성', '화성시', '매송', '매송면', '면', '송라', '외', '2', '2필지', '필지']"
220,시화힐링낚시터,경기도 화성시 안녕남로58번길 4,37.196444,126.989738,"['경기', '경기도', '화성', '안녕', '안녕남로58번', '남로', '58', '번', '길', '4']"
221,루피실내바다낚시터,경기도 화성시 향남읍 포승향남로 3864,37.082231,126.922736,"['경기', '경기도', '화성', '화성시', '향남', '향남읍', '포승', '포승향남로', '향', '남로', '3864']"
222,뚜루실내바다낚시터,경기도 화성시 비봉면 쌍학길 75,37.242891,126.897376,"['경기', '경기도', '화성', '화성시', '비봉', '비봉면', '면', '쌍', '쌍학길', '학', '길', '75']"
223,화도낚시터,경기도 남양주시 화도읍 경춘로2414번길 50-14,37.6553,127.36,"['경기', '경기도', '남양주', '남양주시', '화도', '화도읍', '경', '로', '로2414번길', '2414', '번', '길']"
224,배양낚시터,경기도 남양주시 진건읍 고재로191번길 64-17,37.6389,127.1871,"['경기', '경기도', '남양주', '남양주시', '진', '진건읍', '건', '고재', '191', '191번길', '번', '길']"
225,솟골낚시터,경기도 남양주시 진건읍 사릉로620번길 44-31,37.6716,127.1695,"['경기', '경기도', '남양주', '남양주시', '진', '진건읍', '건', '사릉', '620', '620번길', '번', '길']"
226,진벌낚시공원,경기도 남양주시 진접읍 진벌리 324,37.7346,127.2275,"['경기', '경기도', '남양주', '남양주시', '진접', '진접읍', '진', '진벌', '벌', '324']"
227,88실내바다낚시터,경기도 고양시 덕양구 고골길116번길 14-67(관산동),37.71074,126.86322,"['경기', '경기도', '고양', '고양시', '덕양', '덕양구', '고골', '고골길116번', '길', '116', '번', '관산', '관산동', '동']"
228,퐁퐁실내낚시터,경기도 고양시 일산동구 탄중로 429 성지프라자 지하1층 102호(중산동),37.69076,126.77767,"['경기', '경기도', '고양', '고양시', '일산', '일산동구', '동구', '중로', '429', '성', '성지프라자', '지프', '라자', '지하', '지하1층', '1', '층', '102', '102호', '호', '중산', '중산동', '동']"
229,백두산낚시터,경기도 고양시 덕양구 서리골길36번길 158-7(선유동),37.68858,126.9114,"['경기', '경기도', '고양', '고양시', '덕양', '덕양구', '서리', '서리골길36', '골', '길', '36', '번', '번길', '선유', '선유동', '동']"
230,백용낚시터,경기도 고양시 일산동구 감내길 73(성석동),37.71391,126.78215,"['경기', '경기도', '고양', '고양시', '일산', '일산동구', '동구', '감내', '감내길', '길', '73', '성석', '성석동', '동']"
231,문봉낚시터,경기도 고양시 일산동구 성현로268번길 153(문봉동),37.70112,126.81428,"['경기', '경기도', '고양', '고양시', '일산', '일산동구', '동구', '성', '성현로268번', '현로', '268', '번', '길', '153', '문봉', '문봉동', '동']"
232,보물섬낚시터,경기도 고양시 덕양구 대곡길 31-8(내곡동),37.64341,126.80289,"['경기', '경기도', '고양', '고양시', '덕양', '덕양구', '대곡', '대곡길', '길', '내곡', '내곡동', '동']"
233,봉림낚시터,경기도 고양시 덕양구 호국로1595번길 25(대자동),37.69295,126.89947,"['경기', '경기도', '고양', '고양시', '덕양', '덕양구', '호', '호국로1595번', '국로', '1595', '번', '길', '25', '대자', '대자동', '동']"
234,뚜루실내낚시놀이터,"경기도 고양시 일산동구 견달산로225번길 26-44, 나동(식사동)",37.68912,126.81875,"['경기', '경기도', '고양', '고양시', '일산', '일산동구', '동구', '견', '견달산로225', '달', '산로', '225', '번', '번길', '길', '나', '나동', '동', '식사', '식사동', '동']"
235,바위골 낚시터,경기도 군포시 호수로 43-178(둔대동),37.329518,126.879424,"['경기', '경기도', '군포', '군포시', '호수', '둔대', '둔대동', '동']"
236,금광호수,경기도 안성시 금광면 금광리 345-1,36.9898764,127.329794,"['경기', '경기도', '안성', '안성시', '금광', '금광면', '면', '금광', '금광리', '리']"
237,만정,경기도 안성시 공도읍 만정리 58,37.018111,127.183264,"['경기', '경기도', '안성', '안성시', '공도', '공도읍', '만', '만정리', '정리', '58']"
238,신미골,경기도 안성시 삼죽면 미장리 40-1,37.038116,127.377075,"['경기', '경기도', '안성', '안성시', '삼죽', '삼죽면', '면', '미장']"
239,마둔,경기도 안성시 금광면 장죽리 216번지 일원,36.974239,127.314235,"['경기', '경기도', '안성', '안성시', '금광', '금광면', '면', '장', '장죽리', '죽리', '216', '216번지', '번지', '일원']"
240,두메,경기도 안성시 죽산면 두교리 451번지 일원,37.008264,127.428955,"['경기', '경기도', '안성', '안성시', '죽산', '죽산면', '면', '교리', '451', '451번지', '번지', '일원']"
241,용설,경기도 안성시 죽산면 용설리 560 외,37.057744,127.444983,"['경기', '경기도', '안성', '안성시', '죽산', '죽산면', '면', '용', '용설리', '설', '리', '560', '외']"
242,노곡,경기도 안성시 양성면 노곡리 254-1 외,37.106131,127.253152,"['경기', '경기도', '안성', '안성시', '양성', '양성면', '면', '노', '노곡', '곡', '외']"
243,농촌지,경기도 안성시 발화동 118 외,36.983539,127.284644,"['경기', '경기도', '안성', '안성시', '발화', '발화동', '동', '118', '외']"
244,덕산,경기도 안성시 삼죽면 배태리 95 외,37.076725,127.366471,"['경기', '경기도', '안성', '안성시', '삼죽', '삼죽면', '면', '배태', '95', '외']"
245,고삼,경기도 안성시 고삼면 월향리 20번지 외,37.093261,127.289348,"['경기', '경기도', '안성', '안성시', '고삼', '고삼면', '면', '월', '월향리', '향리', '20', '20번지', '번지', '외']"
246,청월,경기도 안성시 고삼면 월향리 411-1 외,37.085688,127.277025,"['경기', '경기도', '안성', '안성시', '고삼', '고삼면', '면', '월', '월향리', '향리', '외']"
247,연못,경기도 안성시 고삼면 월향리 44-1 외,37.094849,127.289617,"['경기', '경기도', '안성', '안성시', '고삼', '고삼면', '면', '월', '월향리', '향리', '외']"
248,장계,경기도 안성시 죽산면 장계리 868 외,37.040644,127.406525,"['경기', '경기도', '안성', '안성시', '죽산', '죽산면', '면', '장', '장계리', '계리', '868', '외']"
249,리얼바다낚시터,"경기도 부천시 상일로 72-1, 신라쇼핑타운 지하 51호",37.4901476,126.75029,"['경기', '경기도', '부천', '부천시', '상일', '신라', '신라쇼핑타운', '쇼핑', '타운', '지하', '51', '51호', '호']"
250,아마존실내낚시터,"경기도 부천시 부흥로 404, 지하1층",37.4896579,126.78513,"['경기', '경기도', '부천', '부천시', '부흥', '404', '지하', '지하1층', '1', '층']"
251,미산,경기도 안성시 양성면 미산리 343외,37.129984,127.257803,"['경기', '경기도', '안성', '안성시', '양성', '양성면', '면', '미', '미산리', '산리', '343', '343외', '외']"
252,월향,경기도 안성시 고삼면 월향리 596 외,37.085938,127.272579,"['경기', '경기도', '안성', '안성시', '고삼', '고삼면', '면', '월', '월향리', '향리', '596', '외']"
253,반제,경기도 안성시 원곡면 반제리 114-2 외,37.026444,127.165384,"['경기', '경기도', '안성', '안성시', '원곡', '원곡면', '면', '반', '반제리', '제리', '외']"
254,꼴미,경기도 안성시 고삼면 봉산리 175 외,37.076432,127.288986,"['경기', '경기도', '안성', '안성시', '고삼', '고삼면', '면', '봉산', '175', '외']"
255,성주리,경기도 안성시 원곡면 성주리 46-3 외,37.083137,127.175901,"['경기', '경기도', '안성', '안성시', '원곡', '원곡면', '면', '성주', '외']"
256,덕봉,경기도 안성시 양성면 덕봉리 8 외,37.052709,127.187296,"['경기', '경기도', '안성', '안성시', '양성', '양성면', '면', '덕', '덕봉리', '봉리', '8', '외']"
257,동신곡,경기도 안성시 금광면 신양복리 61 외,37.009422,127.331959,"['경기', '경기도', '안성', '안성시', '금광', '금광면', '면', '신양', '신양복리', '복리', '61', '외']"
258,상지,경기도 안성시 원곡면 지문리 269 일원,37.061062,127.144169,"['경기', '경기도', '안성', '안성시', '원곡', '원곡면', '면', '지문', '지문리', '리', '269', '일원']"
259,장광,경기도 안성시 죽산면 매산리 683 일원,37.097851,127.429726,"['경기', '경기도', '안성', '안성시', '죽산', '죽산면', '면', '매산리', '683', '일원']"
260,조일,경기도 안성시 양성면 조일리 97 일원,37.071219,127.212307,"['경기', '경기도', '안성', '안성시', '양성', '양성면', '면', '조일', '조일리', '리', '97', '일원']"
261,설동,경기도 안성시 죽산면 용설리 8 일원,37.051469,127.460886,"['경기', '경기도', '안성', '안성시', '죽산', '죽산면', '면', '용', '용설리', '설', '리', '8', '일원']"
262,독정,경기도 안성시 원곡면 칠곡리 728번지일원,37.039837,127.160231,"['경기', '경기도', '안성', '안성시', '원곡', '원곡면', '면', '곡', '728', '728번지일원', '번지', '일원']"
263,성은,경기도 안성시 원곡면 성은리 406 일원,37.071231,127.166836,"['경기', '경기도', '안성', '안성시', '원곡', '원곡면', '면', '성은', '성은리', '리', '406', '일원']"
264,도곡,경기도 안성시 양성면 도곡리 35-1 외,37.088009,127.216608,"['경기', '경기도', '안성', '안성시', '양성', '양성면', '면', '도', '도곡', '곡', '외']"
265,산우물,경기도 안성시 보개면 신안리 199-4 일원,37.060386,127.315883,"['경기', '경기도', '안성', '안성시', '보개', '보개면', '면', '신안', '신안리', '리', '일원']"
266,칠곡,경기도 안성시 원곡면 칠곡리 379-2 외,37.047548,127.155988,"['경기', '경기도', '안성', '안성시', '원곡', '원곡면', '면', '곡', '외']"
267,거청,경기도 안성시 대덕면 모산리 423 외,37.026031,127.240801,"['경기', '경기도', '안성', '안성시', '대덕', '대덕면', '면', '모', '모산리', '산리', '423', '외']"
268,회암,경기도 안성시 삼죽면 내강리 519,37.0624896,127.3630405,"['경기', '경기도', '안성', '안성시', '삼죽', '삼죽면', '면', '내강', '내강리', '리', '519']"
269,명인,경기도 안성시 원곡면 내가천리 203-1,37.036038,127.112249,"['경기', '경기도', '안성', '안성시', '원곡', '원곡면', '면', '내가', '내가천리', '천', '리']"
270,참샘,경기도 안성시 원곡면 지문리 303-4,37.067592,127.151253,"['경기', '경기도', '안성', '안성시', '원곡', '원곡면', '면', '지문']"
271,개나리낚시공원,경기도 안성시 삼죽면 진촌리 18-2일원,37.050525,127.372127,"['경기', '경기도', '안성', '안성시', '삼죽', '삼죽면', '면', '진', '진촌리', '촌리', '일원']"
272,산수낚시터,경기도 가평군 북면 논남기길 19-35,37.967557,127.459915,"['경기', '경기도', '가평', '가평군', '북면', '논', '논남기길', '남기', '길']"
273,가평낚시터,경기도 가평군 가평읍 가화로 440-95,37.855232,127.509913,"['경기', '경기도', '가평', '가평군', '가평읍', '가화']"
274,설악낚시터,경기도 가평군 설악면 자잠로23번길 67-55,37.681955,127.48307,"['경기', '경기도', '가평', '가평군', '설악', '설악면', '면', '자', '자잠로23번', '잠로', '23', '번', '길']"
275,상천낚시터,경기도 가평군 청평면 상지로 225,37.768004,127.474506,"['경기', '경기도', '가평', '가평군', '청', '청평면', '평면', '상지', '225']"
276,도장골낚시터,경기도 가평군 조종면 대보간선로399번길 63-9,37.806847,127.373369,"['경기', '경기도', '가평', '가평군', '조종', '조종면', '면', '대보', '대보간선로399번', '간선로', '399', '번', '길']"
277,원낚시포차,경기도 안양시 만안구 안양로 305번길 지하1층,37.3984542,126.9375105,"['경기', '경기도', '안양', '안양시', '만안', '만안구', '안', '안양로', '양로', '305', '305번길', '번', '길', '지하', '지하1층', '1', '층']"
278,안양바다낚시터,"경기도 안양시 만안구 양화로 126, 지층",37.4038887,126.9098854,"['경기', '경기도', '안양', '안양시', '만안', '만안구', '양화', '126', '지층']"
279,의왕시 낚시터 없음,"경기도 의왕시 시청로 11, 의왕시청 (고천동)",37.346235,126.981715,"['경기', '경기도', '의왕', '의왕시', '시청', '11', '의왕시청', '청', '고천', '고천동', '동']"
280,성호낚시터,경기도 이천시 설성면 장천리 238,37.13,127.53,"['경기', '경기도', '이천', '이천시', '설성', '설성면', '면', '장천', '장천리', '리', '238']"
281,용풍낚시터,경기도 이천시 장호원읍 송산리 298,37.12,127.59,"['경기', '경기도', '이천', '이천시', '장호원', '장호원읍', '송산리', '298']"
282,용면파크낚시터,경기도 이천시 신둔면 용면리 533,37.29,127.36,"['경기', '경기도', '이천', '이천시', '신둔', '신둔면', '면', '용면', '용면리', '리', '533']"
283,각평낚시터,경기도 이천시 마장면 덕이로154번길 273,37.23,127.38,"['경기', '경기도', '이천', '이천시', '마', '마장', '마장면', '장면', '면', '덕', '덕이로154번', '이로', '154', '번', '길', '273']"
284,고담낚시터,경기도 이천시 진상미로2192번길 217,37.23,127.46,"['경기', '경기도', '이천', '이천시', '진상', '진상미로2192번', '미로', '2192', '번', '길', '217']"
285,학암낚시터,경기도 이천시 신둔면 이장로311번길 490,37.28,127.37,"['경기', '경기도', '이천', '이천시', '신둔', '신둔면', '면', '이', '이장로311번', '장로', '311', '번', '길', '490']"
286,본죽낚시터,경기도 이천시 율면 주래본죽로 508-1,37.08,127.52,"['경기', '경기도', '이천', '이천시', '율면', '주래', '죽']"
287,양벌낚시터,경기도 광주시 양촌길 218,37.369619,127.258023,"['경기', '경기도', '광주시', '양', '양촌길', '촌길', '218']"
288,진우낚시터,경기도 광주시 도척면 저수지길 182,37.311647,127.351043,"['경기', '경기도', '광주시', '도척', '도척면', '면', '저수지', '저수지길', '길', '182']"
289,추곡낚시터,경기도 광주시 도척면 추곡길 91,37.280897,127.285867,"['경기', '경기도', '광주시', '도척', '도척면', '면', '추곡', '추곡길', '길', '91']"
290,한일낚시터,경기도 광주시 도척면 옛진말길 63-1,37.326982,127.329585,"['경기', '경기도', '광주시', '도척', '도척면', '면', '진', '진말길', '말길']"
291,아방리낚시터,경기도 광명시 범안로 740-12 (노온사동),37.4425983,126.856398,"['경기', '경기도', '광명', '광명시', '범안', '노온', '노온사', '노온사동', '사동', '동']"
292,샘터낚시터,경기도 광명시 장절로 96-33 (노온사동),37.4313547,126.8571543,"['경기', '경기도', '광명', '광명시', '장절', '노온', '노온사', '노온사동', '사동', '동']"
293,못난이샤크 실내바다낚시터,"경기도 광명시 광명로 858, 지하1층 (광명동)",37.4756438,126.852954,"['경기', '경기도', '광명', '광명시', '광명', '858', '지하', '지하1층', '1', '층', '광명동', '동']"
294,작은연못낚시터,경기도 파주시 광탄면 방축안길 39-5,37.81228319,126.8594378,"['경기', '경기도', '파주', '파주시', '광탄', '광탄면', '면', '방축']"
295,감악산낚시터,경기도 파주시 적성면 감골길 48,37.91216452,126.9521871,"['경기', '경기도', '파주', '파주시', '적성', '적성면', '면', '감', '감골길', '골', '길', '48']"
296,직천낚시터,경기도 파주시 법원읍 만월로 537-29,37.89620911,126.9233593,"['경기', '경기도', '파주', '파주시', '법원', '법원읍', '만월']"
297,아름낚시터,경기도 파주시 광탄면 부흥로 422,37.80380438,126.8939758,"['경기', '경기도', '파주', '파주시', '광탄', '광탄면', '면', '부흥', '422']"
298,넘버원애드낚시터,경기도 파주시 법원읍 보광로 1663,37.82400373,126.8684493,"['경기', '경기도', '파주', '파주시', '법원', '법원읍', '보광', '1663']"
299,산골낚시터,경기도 파주시 법원읍 만월로613번길 237,37.89033168,126.9140339,"['경기', '경기도', '파주', '파주시', '법원', '법원읍', '만월', '613', '613번길', '번', '길', '237']"
300,하마낚시터,경기도 파주시 적성면 국사로 297,37.96115977,126.8696215,"['경기', '경기도', '파주', '파주시', '적성', '적성면', '면', '국사', '297']"
301,문화레저낚시터,경기도 파주시 광탄면 혜음로 1300-45,37.79682665,126.8497236,"['경기', '경기도', '파주', '파주시', '광탄', '광탄면', '면', '혜음']"
302,매일낚시터,경기도 파주시 광탄면 보광로 898-17,37.77641772,126.884343,"['경기', '경기도', '파주', '파주시', '광탄', '광탄면', '면', '보광']"
303,원실내바다낚시터,경기도 파주시 산남동 120-9,37.70094,126.6948,"['경기', '경기도', '파주', '파주시', '산', '산남', '산남동', '남동', '동']"
304,금곡낚시터,경기도 파주시 법원읍 술이홀로1372번길 347,37.89267479,126.8926452,"['경기', '경기도', '파주', '파주시', '법원', '법원읍', '술', '1372', '1372번길', '번', '길', '347']"
305,썸피싱카페낚시터,경기도 파주시 금정18길 20,37.76092367,126.7749272,"['경기', '경기도', '파주', '파주시', '금정', '금정18길', '18', '길', '20']"
306,자유로레저낚시터,경기도 파주시 탄현면 엘지로717번길 2-114,37.83697823,126.7299072,"['경기', '경기도', '파주', '파주시', '탄현', '탄현면', '면', '엘', '엘지로717번', '지로', '717', '번', '길']"
307,임진낚시캠핑,경기도 파주시 문산읍 임진나루길 178-68,37.88809785,126.7928557,"['경기', '경기도', '파주', '파주시', '문산', '문산읍', '임진', '임진나루길', '나루', '길']"
308,광탄낚시터,경기도 파주시 광탄면 부흥로 194-24,37.80224978,126.8674305,"['경기', '경기도', '파주', '파주시', '광탄', '광탄면', '면', '부흥']"
309,발랑낚시터,경기도 파주시 광탄면 부흥로 596,37.80606609,126.9080435,"['경기', '경기도', '파주', '파주시', '광탄', '광탄면', '면', '부흥', '596']"
310,일산바다실내낚시터,경기도 고양시 일산동구 지영로 29-1 (문봉동),37.703476,126.824404,"['경기', '경기도', '고양', '고양시', '일산', '일산동구', '동구', '지영', '문봉', '문봉동', '동']"
311,신기낚시터,경기도 용인시 처인구 남동 542,37.2199,127.1911,"['경기', '경기도', '용인', '용인시', '처', '처인구', '인구', '남동', '542']"
312,상덕낚시터,경기도 용인시 처인구 이동읍 서리 873,37.2148,127.1636,"['경기', '경기도', '용인', '용인시', '처', '처인구', '인구', '이동', '이동읍', '서리', '873']"
313,신원낚시터,경기도 용인시 처인구 이동읍 묵리 915,37.1862,127.2248,"['경기', '경기도', '용인', '용인시', '처', '처인구', '인구', '이동', '이동읍', '묵', '묵리', '리', '915']"
314,묵리낚시터,경기도 용인시 처인구 이동읍 묵리 591,37.176,127.2327,"['경기', '경기도', '용인', '용인시', '처', '처인구', '인구', '이동', '이동읍', '묵', '묵리', '리', '591']"
315,요덕골낚시터,경기도 용인시 처인구 이동읍 송전리 41,37.1368,127.2199,"['경기', '경기도', '용인', '용인시', '처', '처인구', '인구', '이동', '이동읍', '송전', '송전리', '리', '41']"
316,이동내수면어업계 낚시터,경기도 용인시 처인구 이동읍 어비리 574-3,37.126,127.2041,"['경기', '경기도', '용인', '용인시', '처', '처인구', '인구', '이동', '이동읍', '어비']"
317,사계절낚시터,경기도 용인시 처인구 이동읍 송전리 984,37.1343,127.1942,"['경기', '경기도', '용인', '용인시', '처', '처인구', '인구', '이동', '이동읍', '송전', '송전리', '리', '984']"
318,창리낚시터,경기도 용인시 처인구 남사읍 창리 377-8,37.1401,127.1847,"['경기', '경기도', '용인', '용인시', '처', '처인구', '인구', '남', '창']"
319,삼인낚시터,경기도 용인시 처인구 남사읍 북리 369,37.1582,127.1421,"['경기', '경기도', '용인', '용인시', '처', '처인구', '인구', '남', '북', '북리', '리', '369']"
320,통삼낚시터,경기도 용인시 처인구 남사읍 통삼리 33번지,37.1214,127.1355,"['경기', '경기도', '용인', '용인시', '처', '처인구', '인구', '남', '통', '통삼리', '삼리', '33', '33번지', '번지']"
321,고초골낚시터,경기도 용인시 처인구 원삼면 학일리 104,37.1581,127.2847,"['경기', '경기도', '용인', '용인시', '처', '처인구', '인구', '원삼', '원삼면', '면', '학', '학일리', '일리', '104']"
322,용담낚시터,경기도 용인시 처인구 원삼면 사암리 1182-2,37.1912,127.306,"['경기', '경기도', '용인', '용인시', '처', '처인구', '인구', '원삼', '원삼면', '면', '사암']"
323,두창낚시터,경기도 용인시 처인구 원삼면 두창리 1393,37.1487,127.3347,"['경기', '경기도', '용인', '용인시', '처', '처인구', '인구', '원삼', '원삼면', '면', '두창', '1393']"
324,아곡낚시터,경기도 용인시 처인구 백암면 고안리 산 153,37.1312,127.7167,"['경기', '경기도', '용인', '용인시', '처', '처인구', '인구', '백암', '백암면', '면', '고안', '고안리', '리', '산', '153']"
325,산장낚시터,경기도 용인시 처인구 양지면 평창리 537-1,37.2257,127.3221,"['경기', '경기도', '용인', '용인시', '처', '처인구', '인구', '양지', '양지면', '면', '평', '평창', '창']"
326,한터낚시터,경기도 용인시 처인구 양지면 대대리 639-1,37.2598,127.2765,"['경기', '경기도', '용인', '용인시', '처', '처인구', '인구', '양지', '양지면', '면', '대대']"
327,물어실내바다낚시터,경기도 용인시 처인구 포곡읍 영문리 82,37.2755,127.2064,"['경기', '경기도', '용인', '용인시', '처', '처인구', '인구', '포', '포곡읍', '곡읍', '영', '영문리', '문리', '82']"
328,지곡낚시터,"경기도 용인시 기흥구 지삼로250번길 65, 뜨레모아 (지곡동)",37.2308,127.135,"['경기', '경기도', '용인', '용인시', '기흥', '지', '지삼', '삼', '250', '250번길', '번', '길', '65', '뜨레', '뜨레모아', '모아', '지곡', '지곡동', '동']"
329,수원실내바다낚시터,"경기도 용인시 기흥구 석성로301번길 3-5, ASPOWER (언남동)",37.2903,127.1324,"['경기', '경기도', '용인', '용인시', '기흥', '석성', '301', '301번길', '번', '길', '남동']"
330,죠스실내낚시터,경기도 용인시 기흥구 신갈로58번길 17 (신갈동),37.2726,127.1076,"['경기', '경기도', '용인', '용인시', '기흥', '갈로', '갈로58번길', '58', '번', '길', '17', '갈동']"
331,관광농원낚시터,경기도 여주시 북내면 중암2길 19-22,37.356465,127.710493,"['경기', '경기도', '여주', '북내', '북내면', '면', '중', '중암2길', '암', '2', '길']"
332,오산낚시터,경기도 여주시 가남읍 양화로 154-23,37.2355128,127.559427,"['경기', '경기도', '여주', '여주시', '남', '남읍', '양화']"
333,가남낚시터,경기도 여주시 가남읍 건은로 82-67,37.194979,127.544009,"['경기', '경기도', '여주', '여주시', '남', '남읍', '건', '로']"
334,신근낚시터,경기도 여주시 흥천면 신율로 36,37.308914,127.557689,"['경기', '경기도', '여주', '흥천', '흥천면', '면', '율', '36']"
335,어우실낚시터,경기도 여주시 어우실길 65,37.151903,127.6579298,"['경기', '경기도', '여주', '어우', '어우실길', '실', '길', '65']"
336,삼합낚시터,경기도 여주시 점동로650,37.199815,127.726804,"['경기', '경기도', '여주', '점', '점동로650', '동로', '650']"
337,갈천유료낚시터,경상남도 고성군 대가면 갈천로 310,35.026952,128.25182,"['경상', '경상남도', '남도', '고성', '고성군', '대가', '대가면', '면', '천로', '310']"
338,원전어촌계 (황금)낚시터,경상남도 창원시 마산합포구 구산면 이순신로 644,35.04,128.38,"['경상', '경상남도', '남도', '창원', '창원시', '마산', '마산합포구', '합포', '합포구', '구산', '구산면', '면', '이순', '이순신로', '신로', '644']"
339,원전어촌계 (순찬)낚시터,경상남도 창원시 마산합포구 구산면 이순신로 644,35.04,128.38,"['경상', '경상남도', '남도', '창원', '창원시', '마산', '마산합포구', '합포', '합포구', '구산', '구산면', '면', '이순', '이순신로', '신로', '644']"
340,원전어촌계 (재영)낚시터,경상남도 창원시 마산합포구 구산면 이순신로 644,35.04,128.38,"['경상', '경상남도', '남도', '창원', '창원시', '마산', '마산합포구', '합포', '합포구', '구산', '구산면', '면', '이순', '이순신로', '신로', '644']"
341,원전어촌계 (쌍둥이2)낚시터,경상남도 창원시 마산합포구 구산면 이순신로 644,35.04,128.38,"['경상', '경상남도', '남도', '창원', '창원시', '마산', '마산합포구', '합포', '합포구', '구산', '구산면', '면', '이순', '이순신로', '신로', '644']"
342,원전어촌계 (뱃머리)낚시터,경상남도 창원시 마산합포구 구산면 이순신로 644,35.04,128.38,"['경상', '경상남도', '남도', '창원', '창원시', '마산', '마산합포구', '합포', '합포구', '구산', '구산면', '면', '이순', '이순신로', '신로', '644']"
343,원전어촌계 (쌍둥이1)낚시터,경상남도 창원시 마산합포구 구산면 이순신로 644,35.03,128.38,"['경상', '경상남도', '남도', '창원', '창원시', '마산', '마산합포구', '합포', '합포구', '구산', '구산면', '면', '이순', '이순신로', '신로', '644']"
344,원전어촌계 (용마)낚시터,경상남도 창원시 마산합포구 구산면 이순신로 644,35.04,128.38,"['경상', '경상남도', '남도', '창원', '창원시', '마산', '마산합포구', '합포', '합포구', '구산', '구산면', '면', '이순', '이순신로', '신로', '644']"
345,원전어촌계 (삼성)낚시터,경상남도 창원시 마산합포구 구산면 이순신로 644,35.03,128.38,"['경상', '경상남도', '남도', '창원', '창원시', '마산', '마산합포구', '합포', '합포구', '구산', '구산면', '면', '이순', '이순신로', '신로', '644']"
346,실리도 어촌계 (백마)낚시터,경상남도 창원시 마산합포구 구산면 이순신로 644,35.04,128.38,"['경상', '경상남도', '남도', '창원', '창원시', '마산', '마산합포구', '합포', '합포구', '구산', '구산면', '면', '이순', '이순신로', '신로', '644']"
347,실리도 어촌계 (금양)낚시터,경상남도 창원시 마산합포구 구산면 이순신로 644,35.03,128.38,"['경상', '경상남도', '남도', '창원', '창원시', '마산', '마산합포구', '합포', '합포구', '구산', '구산면', '면', '이순', '이순신로', '신로', '644']"
348,실리도 어촌계 (선창2)낚시터,경상남도 창원시 마산합포구 구산면 이순신로 644,35.03,128.38,"['경상', '경상남도', '남도', '창원', '창원시', '마산', '마산합포구', '합포', '합포구', '구산', '구산면', '면', '이순', '이순신로', '신로', '644']"
349,실리도 어촌계 (한마음1)낚시터,경상남도 창원시 마산합포구 구산면 실리섬길 3,35.03,128.38,"['경상', '경상남도', '남도', '창원', '창원시', '마산', '마산합포구', '합포', '합포구', '구산', '구산면', '면', '실리', '3']"
350,실리도 어촌계 (한마음2)낚시터,경상남도 창원시 마산합포구 구산면 실리섬길 3,35.03,128.38,"['경상', '경상남도', '남도', '창원', '창원시', '마산', '마산합포구', '합포', '합포구', '구산', '구산면', '면', '실리', '3']"
351,원전어촌계 (바다)낚시터,경상남도 창원시 마산합포구 구산면 이순신로 644,35.04,128.38,"['경상', '경상남도', '남도', '창원', '창원시', '마산', '마산합포구', '합포', '합포구', '구산', '구산면', '면', '이순', '이순신로', '신로', '644']"
352,실리도 어촌계 (반야1)낚시터,경상남도 창원시 마산합포구 구산면 실리섬길 3,35.03,128.38,"['경상', '경상남도', '남도', '창원', '창원시', '마산', '마산합포구', '합포', '합포구', '구산', '구산면', '면', '실리', '3']"
353,실리도 어촌계 (반야2)낚시터,경상남도 창원시 마산합포구 구산면 실리섬길 3,35.03,128.38,"['경상', '경상남도', '남도', '창원', '창원시', '마산', '마산합포구', '합포', '합포구', '구산', '구산면', '면', '실리', '3']"
354,원전어촌계 (가고파)낚시터,경상남도 창원시 마산합포구 구산면 이순신로 644,35.04,128.38,"['경상', '경상남도', '남도', '창원', '창원시', '마산', '마산합포구', '합포', '합포구', '구산', '구산면', '면', '이순', '이순신로', '신로', '644']"
355,원전어촌계 (천수)낚시터,경상남도 창원시 마산합포구 구산면 이순신로 644,35.04,128.38,"['경상', '경상남도', '남도', '창원', '창원시', '마산', '마산합포구', '합포', '합포구', '구산', '구산면', '면', '이순', '이순신로', '신로', '644']"
356,원전어촌계 (성용)낚시터,경상남도 창원시 마산합포구 구산면 이순신로 644,35.04,128.38,"['경상', '경상남도', '남도', '창원', '창원시', '마산', '마산합포구', '합포', '합포구', '구산', '구산면', '면', '이순', '이순신로', '신로', '644']"
357,시락어촌계낚시터(3동),경상남도 창원시 마산합포구 진전면 회진로 1123-25,35.04,128.26,"['경상', '경상남도', '남도', '창원', '창원시', '마산', '마산합포구', '합포', '합포구', '진전', '진전면', '면', '회', '회진로', '진로']"
358,원전어촌계 (선창)낚시터,경상남도 창원시 마산합포구 구산면 이순신로 644,35.04,128.38,"['경상', '경상남도', '남도', '창원', '창원시', '마산', '마산합포구', '합포', '합포구', '구산', '구산면', '면', '이순', '이순신로', '신로', '644']"
359,원전어촌계 (강민)낚시터,경상남도 창원시 마산합포구 구산면 이순신로 644,35.04,128.38,"['경상', '경상남도', '남도', '창원', '창원시', '마산', '마산합포구', '합포', '합포구', '구산', '구산면', '면', '이순', '이순신로', '신로', '644']"
360,원전어촌계 (대봉)낚시터,경상남도 창원시 마산합포구 구산면 이순신로 644,35.04,128.38,"['경상', '경상남도', '남도', '창원', '창원시', '마산', '마산합포구', '합포', '합포구', '구산', '구산면', '면', '이순', '이순신로', '신로', '644']"
361,원전어촌계 (삼정)낚시터,경상남도 창원시 마산합포구 구산면 이순신로 644,35.04,128.38,"['경상', '경상남도', '남도', '창원', '창원시', '마산', '마산합포구', '합포', '합포구', '구산', '구산면', '면', '이순', '이순신로', '신로', '644']"
362,원전어촌계 (조선)낚시터,경상남도 창원시 마산합포구 구산면 이순신로 644,35.04,128.38,"['경상', '경상남도', '남도', '창원', '창원시', '마산', '마산합포구', '합포', '합포구', '구산', '구산면', '면', '이순', '이순신로', '신로', '644']"
363,원전어촌계 (태양)낚시터,경상남도 창원시 마산합포구 구산면 이순신로 644,35.04,128.38,"['경상', '경상남도', '남도', '창원', '창원시', '마산', '마산합포구', '합포', '합포구', '구산', '구산면', '면', '이순', '이순신로', '신로', '644']"
364,원전어촌계 (태진)낚시터,경상남도 창원시 마산합포구 구산면 이순신로 644,35.04,128.38,"['경상', '경상남도', '남도', '창원', '창원시', '마산', '마산합포구', '합포', '합포구', '구산', '구산면', '면', '이순', '이순신로', '신로', '644']"
365,원전어촌계 (혜주)낚시터,경상남도 창원시 마산합포구 구산면 이순신로 644,35.04,128.38,"['경상', '경상남도', '남도', '창원', '창원시', '마산', '마산합포구', '합포', '합포구', '구산', '구산면', '면', '이순', '이순신로', '신로', '644']"
366,니모실내낚시카페,"경상남도 창녕군 창녕읍 종로15, B01호(낙원빌라)",35.53866,128.4977488,"['경상', '경상남도', '남도', '창녕', '창녕군', '창녕읍', '종로', '종로15', '15', '01', '01호', '호', '낙원', '낙원빌라', '빌라']"
367,달창유로낚시터,"경상남도 창녕군 성산면 방리 1067-14, 1067-44",35.6091748,128.5156706,"['경상', '경상남도', '남도', '창녕', '창녕군', '성산', '성산면', '면', '방리']"
368,시방어촌계낚시터,경상남도 거제시 장목면 시방리 지선,34.9641,128.7135,"['경상', '경상남도', '남도', '거제', '거제시', '장목', '장목면', '면', '시', '시방리', '방리', '지선']"
369,장승포어촌계낚시터,"경상남도 거제시 장승포동 산11-4, 산2번지 지선",34.8642,128.7387,"['경상', '경상남도', '남도', '거제', '거제시', '장승포', '장승포동', '동', '산', '산2번지', '2', '번지', '지선']"
370,선창해상낚시터,경상남도 거제시 일운면 지세포해안로 240,34.8347,128.7156,"['경상', '경상남도', '남도', '거제', '거제시', '일운', '일운면', '면', '지', '지세포해안', '세포', '해안', '240']"
371,도장포낚시터,경상남도 거제시 남부면 도장포3길 지선,34.745,128.6663,"['경상', '경상남도', '남도', '거제', '거제시', '남부', '남부면', '면', '도장포', '도장포3길', '3', '길', '지선']"
372,유호어촌계낚시터,경상남도 거제시 장목면 유호리 지선,35.028,128.7168,"['경상', '경상남도', '남도', '거제', '거제시', '장목', '장목면', '면', '유', '유호리', '호리', '지선']"
373,덕포어촌계낚시터,경상남도 거제시 덕포동 38-6번지 지선,34.9107,128.7164,"['경상', '경상남도', '남도', '거제', '거제시', '덕포', '덕포동', '동', '번지', '지선']"
374,창외어촌계낚시터,경상남도 거제시 사등면 창호리 지선,34.9269,128.5215,"['경상', '경상남도', '남도', '거제', '거제시', '사등', '사등면', '면', '창호', '창호리', '리', '지선']"
375,고고실내바다낚시,경상남도 양산시 하북면 용연로 109-1,35.44907046,129.0739858,"['경상', '경상남도', '남도', '양산', '양산시', '하북', '하북면', '면', '용', '용연로', '연로']"
376,해적낚시까페,"경상남도 양산시 물금읍 야리로 129, 402호",35.312878,129.009007,"['경상', '경상남도', '남도', '양산', '양산시', '물금', '물금읍', '야', '야리', '리', '129', '402', '402호', '호']"
377,힐링낚시까페,경상남도 양산시 북정서길 16 세롬성원네오파트 상가동 B101호,35.35965485,129.042319,"['경상', '경상남도', '남도', '양산', '양산시', '북', '북정서길', '정서', '길', '16', '세', '세롬성원네오', '롬', '성원', '네오', '파트', '상가', '상가동', '동', '101', '101호', '호']"
378,화제낚시터,경상남도 경상남도 양산시 원동로 715-33,35.341618,128.969791,"['경상', '경상남도', '남도', '양산', '양산시', '원동']"
379,용연낚시터,경상남도 경상남도 양산시 하북면 삼리길 62-10,35.444533,129.079991,"['경상', '경상남도', '남도', '양산', '양산시', '하북', '하북면', '면', '삼리', '삼리길', '길']"
380,산천낚시터,경상남도 경상남도 양산시 하북면 백록로 123,35.459104,129.085365,"['경상', '경상남도', '남도', '양산', '양산시', '하북', '하북면', '면', '백록', '123']"
381,중화어촌계낚시터,경상남도 통영시 산양읍 연화리 산 228,34.780811,128.379185,"['경상', '경상남도', '남도', '통영', '통영시', '산양', '산양읍', '연화', '연화리', '리', '산', '228']"
382,도동 낚시터,경상남도 통영시 욕지면 욕지일주로 896-104,34.679583,128.253251,"['경상', '경상남도', '남도', '통영', '통영시', '욕지', '욕지면', '면', '욕', '욕지일', '지일']"
383,용머리낚시터,경상남도 통영시 욕지면 연화리 산 13,34.65714676,128.3469023,"['경상', '경상남도', '남도', '통영', '통영시', '욕지', '욕지면', '면', '연화', '연화리', '리', '산', '13']"
384,동영낚시터,경상남도 통영시 욕지면 연화리 산 145-1,34.64936942,128.3490952,"['경상', '경상남도', '남도', '통영', '통영시', '욕지', '욕지면', '면', '연화', '연화리', '리', '산']"
385,능양유료낚시터,경상남도 통영시 사량면 양지리 산 94,34.80872192,128.2405895,"['경상', '경상남도', '남도', '통영', '통영시', '사량', '사량면', '면', '양', '양지리', '지리', '산', '94']"
386,유동낚시터,경상남도 통영시 욕지면 서산리 117-1 마을회관,34.80872192,128.2405895,"['경상', '경상남도', '남도', '통영', '통영시', '욕지', '욕지면', '면', '서산', '마을', '마을회관', '회관']"
387,한마음낚시터,경상남도 통영시 욕지면 노대리 44-1,34.66611518,128.2483465,"['경상', '경상남도', '남도', '통영', '통영시', '욕지', '욕지면', '면', '노', '노대리', '대리']"
388,통영등대낚시공원,경상남도 통영시 산양읍 영운리 72-12,34.81074538,128.441055,"['경상', '경상남도', '남도', '통영', '통영시', '산양', '산양읍', '영운', '영운리', '리']"
389,제2유동낚시터,경상남도 통영시 욕지면 서산리 산33,34.61695055,128.2325726,"['경상', '경상남도', '남도', '통영', '통영시', '욕지', '욕지면', '면', '산리', '산', '산33', '33']"
390,외지유료낚시터,경상남도 통영시 사량면 양지리 677-6,34.81235844,128.2147933,"['경상', '경상남도', '남도', '통영', '통영시', '사량', '사량면', '면', '양지']"
391,옥동산내어촌계 유료낚시터,경상남도 통영시 욕지면 동항리 183-4,34.63404947,128.2808186,"['경상', '경상남도', '남도', '통영', '통영시', '욕지', '욕지면', '면', '동항']"
392,백학어촌계 유료낚시터,경상남도 통영시 사량면 양지리 산 88-1,34.80861114,128.2550604,"['경상', '경상남도', '남도', '통영', '통영시', '사량', '사량면', '면', '양', '양지리', '지리', '산']"
393,사량도 바다낚시터,경상남도 통영시 사량면 금평리 247-10,34.84478654,128.223943,"['경상', '경상남도', '남도', '통영', '통영시', '사량', '사량면', '면', '금', '금평', '평']"
394,탄항좌대낚시터,경상남도 통영시 욕지면 노대리 산14-6,34.679583,128.253251,"['경상', '경상남도', '남도', '통영', '통영시', '욕지', '욕지면', '면', '노', '노대리', '대리', '산']"
395,동두좌대낚시터,경상남도 통영시 욕지면 연화리 산2-45,34.642713,128.369739,"['경상', '경상남도', '남도', '통영', '통영시', '욕지', '욕지면', '면', '연화', '연화리', '리', '산']"
396,장촌낚시터,경상남도 통영시 산양읍 풍화리 343-1,34.817821,128.37093,"['경상', '경상남도', '남도', '통영', '통영시', '산양', '산양읍', '풍화']"
397,동머리낚시터,경상남도 통영시 욕지면 연화리 산2-46,34.642236,128.370198,"['경상', '경상남도', '남도', '통영', '통영시', '욕지', '욕지면', '면', '연화', '연화리', '리', '산']"
398,노대조은낚시터,경상남도 통영시 욕지면 노대리 산15-24,34.669446,128.251937,"['경상', '경상남도', '남도', '통영', '통영시', '욕지', '욕지면', '면', '노', '노대리', '대리', '산']"
399,지정낚시터,경상남도 의령군 지정면 함의로 1360-17,35.37455951,128.402504,"['경상', '경상남도', '남도', '의령', '의령군', '지정', '지정면', '면', '함의']"
400,설리바다낚시터,경상남도 남해군 미조면 미송로303번안길 8-13,34.704381,128.027913,"['경상', '경상남도', '남도', '남해', '남해군', '미조', '미조면', '면', '미', '미송로303번', '송로', '303', '번']"
401,설리 낚시터,경상남도 남해군 미조면 미송로303번안길 8-13,34.706407,128.024712,"['경상', '경상남도', '남도', '남해', '남해군', '미조', '미조면', '면', '미', '미송로303번', '송로', '303', '번']"
402,사항제2낚시터,경상남도 남해군 미조면 미조로 212,34.708829,128.058231,"['경상', '경상남도', '남도', '남해', '남해군', '미조', '미조면', '면', '미', '미조로', '조로', '212']"
403,사항어촌계 낚시터,경상남도 남해군 미조면 미조로 212,34.70905674,128.0482496,"['경상', '경상남도', '남도', '남해', '남해군', '미조', '미조면', '면', '미', '미조로', '조로', '212']"
404,필봉정낚시터,경상남도 김해시 대동면 괴정리 311-3번지,35.26130932,128.9836764,"['경상', '경상남도', '남도', '김해', '김해시', '대동', '대동면', '면', '괴', '괴정리', '정리']"
405,화현낚시터,경상남도 김해시 상동면 감노리 17번지,35.33559343,128.9393673,"['경상', '경상남도', '남도', '김해', '김해시', '상동', '상동면', '면', '감', '감노리', '노리', '17', '17번지', '번지']"
406,아빠와 고래,경상남도 김해시 함박로 121,35.23413498,128.868047,"['경상', '경상남도', '남도', '김해', '김해시', '함박', '121']"
407,다낚아 낚시터,경상남도 김해시 함박로 119번길 17,35.23363583,128.8672616,"['경상', '경상남도', '남도', '김해', '김해시', '함박', '119', '119번길', '번', '길', '17']"
408,대치유료낚시터,"경상남도 하동군 금남면 장환길 104-132, 대치유료낚시터",34.957336,127.897285,"['경상', '경상남도', '남도', '하동', '하동군', '금', '금남', '금남면', '남면', '면', '장', '장환길', '환', '길', '대치', '대치유료낚시터', '유료']"
409,대도유료낚시터,"경상남도 하동군 금남면 대도길 117, 대도복지회관",34.932254,127.832022,"['경상', '경상남도', '남도', '하동', '하동군', '금', '금남', '금남면', '남면', '면', '대도', '대도길', '길', '117', '대도복지회관', '복지', '회관']"
410,송문유료낚시터,경상남도 하동군 금남면 미법마을길 40-5,34.951171,127.855957,"['경상', '경상남도', '남도', '하동', '하동군', '금', '금남', '금남면', '남면', '면', '미', '미법마을길', '법', '마을', '길']"
411,황금빛노을바다 낚시터,경상남도 사천시 사천대로 35,34.93373613,128.0490197,"['경상', '경상남도', '남도', '사천', '사천시', '사천', '35']"
412,황금빛노을바다 낚시터 2호,경상남도 사천시 해안관광로,34.95223985,128.0336695,"['경상', '경상남도', '남도', '사천', '사천시', '해안', '해안관광', '관광']"
413,산분령 유료 낚시터,경상남도 사천시 해안관광로,34.95208657,128.0337571,"['경상', '경상남도', '남도', '사천', '사천시', '해안', '해안관광', '관광']"
414,대포황토펜션 낚시터,경상남도 사천시 대례길,34.99028857,128.0413317,"['경상', '경상남도', '남도', '사천', '사천시', '대례']"
415,저도 유료낚시터,경상남도 사천시 저도길,34.94374921,128.0289693,"['경상', '경상남도', '남도', '사천', '사천시']"
416,새마을낚시터,경상북도 경주시 내남면 내남로 393-20,35.78205433,129.1865307,"['경상', '경상북도', '북도', '경주', '경주시', '내남', '내남면', '면', '내', '내남로', '남로']"
417,삼괴정낚시터,경상북도 경주시 강동면 다산길 117,36.04980649,129.2594352,"['경상', '경상북도', '북도', '경주', '경주시', '강동', '강동면', '면', '다산', '다산길', '길', '117']"
418,동산낚시터,경상북도 경주시 천북면 천강로 123-5,35.90181187,129.275109,"['경상', '경상북도', '북도', '경주', '경주시', '천북', '천북면', '면', '천', '천강', '강']"
419,덕방낚시터,경상북도 경주시 외동읍 덕방지길 19-38,35.70590206,129.297816,"['경상', '경상북도', '북도', '경주', '경주시', '외동', '외동읍', '덕', '덕방지길', '방지', '길']"
420,인동낚시터,경상북도 경주시 강동면 인좌안길 6-1,35.98661005,129.2624603,"['경상', '경상북도', '북도', '경주', '경주시', '강동', '강동면', '면', '인좌']"
421,광지낚시터,경상북도 경주시 건천읍 천포방내길 98-9,35.83813866,129.0986789,"['경상', '경상북도', '북도', '경주', '경주시', '건천', '건천읍', '천포', '천포방내길', '방내', '길']"
422,매전낚시터,경상북도 청도군 매전면 온장길 142,35.637162,128.851936,"['경상', '경상북도', '북도', '청도', '청도군', '매전', '매전면', '면', '온장', '온장길', '길', '142']"
423,구봉낚시터,경상북도 칠곡군 지천면 낙산로5길 144-55,35.94234,128.511751,"['경상', '경상북도', '북도', '칠곡', '칠곡군', '지천', '지천면', '면', '낙산', '5', '5길', '길']"
424,호암지낚시터,경상북도 칠곡군 약목면 남계리 1046,36.024887,128.355128,"['경상', '경상북도', '북도', '칠곡', '칠곡군', '약목', '약목면', '면', '남계', '남계리', '리', '1046']"
425,도속지낚시터,경상북도 칠곡군 북삼읍 오평리 1381,36.055072,128.368072,"['경상', '경상북도', '북도', '칠곡', '칠곡군', '북삼', '북삼읍', '오평', '오평리', '리', '1381']"
426,천평지낚시터,경상북도 칠곡군 가산면 금화리 36외 25필지,36.076021,128.549696,"['경상', '경상북도', '북도', '칠곡', '칠곡군', '가산', '가산면', '면', '금화', '금화리', '리', '36', '36외', '외', '25', '25필지', '필지']"
427,봇또랑낚시터,"경상북도 칠곡군 북삼읍 율리 549-5,551-2,551-3,553-5,549-5",36.054527,128.340378,"['경상', '경상북도', '북도', '칠곡', '칠곡군', '북삼', '북삼읍', '율']"
428,평은낚시터,경상북도 영주시 평은면 강동로410번길 24,36.71467002,128.6879693,"['경상', '경상북도', '북도', '영주', '영주시', '평은', '평은면', '면', '강', '강동로410번', '동로', '410', '번', '길', '24']"
429,파지낚시터,"경상북도 영주시 장수면 장수로 827, 파지리낚시터",36.8021328,128.5475622,"['경상', '경상북도', '북도', '영주', '영주시', '장수', '장수면', '면', '장수', '827', '파', '파지리낚시터', '지리']"
430,귀내낚시터,경상북도 영주시 고현동 412-50,36.837674,128.6173471,"['경상', '경상북도', '북도', '영주', '영주시', '고현', '고현동', '동']"
431,이천낚시터,경상북도 상주시 외서면 이천2길83,36.47767421,128.1395139,"['경상', '경상북도', '북도', '상주', '상주시', '외서', '외서면', '면', '이천', '이천2길83', '2', '길', '83']"
432,세천낚시터,경상북도 상주시 외서면 서당골길 28,36.46930111,128.1652661,"['경상', '경상북도', '북도', '상주', '상주시', '외서', '외서면', '면', '서당골', '서당골길', '길', '28']"
433,명포낚시터,경상북도 성주군 선남면 명관로 162-62,35.882386,128.331951,"['경상', '경상북도', '북도', '성주', '성주군', '선', '선남', '선남면', '남면', '면', '명관']"
434,나곡바다낚시공원,"경상북도 울진군 북면 석호1길 46-62, 나곡바다낚시공원 종합관",37.11825867,129.3768916,"['경상', '경상북도', '북도', '울진', '울진군', '북면', '석호', '석호1길', '1', '길', '나', '곡', '곡바다낚시공원', '바다', '낚시', '공원', '종합', '종합관', '관']"
435,울진시범바다목장해상낚시,경상북도 울진군 평해읍 울진대게로 521-2,36.69906644,129.4756391,"['경상', '경상북도', '북도', '울진', '울진군', '평해', '평해읍', '울', '대게']"
436,아포사계절낚시터,경상북도 김천시 아포읍 제석리 1431-7,36.1464838,128.2202,"['경상', '경상북도', '북도', '김천', '김천시', '아포', '아포읍', '제석']"
437,아포과수원낚시터,경상북도 김천시 아포읍 국사리 155-1,36.1582056,128.2494965,"['경상', '경상북도', '북도', '김천', '김천시', '아포', '아포읍', '국사']"
438,배시네낚시터,경상북도 김천시 아포읍 의리 121-1,36.1888737,128.2321408,"['경상', '경상북도', '북도', '김천', '김천시', '아포', '아포읍', '의리']"
439,복강유료낚시터,경상북도 김천시 대항면 복전리 188-2,36.131298,128.0231607,"['경상', '경상북도', '북도', '김천', '김천시', '대항', '대항면', '면', '복', '복전리', '전리']"
440,강태공낚시터,경상북도 칠곡군 왜관읍 애국동산로 150,36.004523,128.411958,"['경상', '경상북도', '북도', '칠곡', '칠곡군', '왜관', '왜관읍', '애국', '애국동산', '동산', '150']"
441,신동지낚시터,경상북도 구미시 인동가산로 590,36.09708,128.4749,"['경상', '경상북도', '북도', '구미', '구미시', '동가', '동가산로', '산로', '590']"
442,물만난고기,경상북도 구미시 인동중앙로 42,36.10867,128.4229,"['경상', '경상북도', '북도', '구미', '구미시', '인동', '인동중앙', '중앙', '42']"
443,다산나정,경상북도 고령군 다산면 나선로 312-27,35.83044575,128.3995484,"['경상', '경상북도', '북도', '고령', '고령군', '다산', '다산면', '면', '선로']"
444,개나리,경상북도 고령군 대가야읍 정정골길 67-39,35.741599,128.257505,"['경상', '경상북도', '북도', '고령', '고령군', '대가야', '대가야읍', '정정', '정정골길', '골', '길']"
445,역돔낚시터,경상북도 문경시 문경읍 새재로 623,36.55211,128.232232,"['경상', '경상북도', '북도', '문경', '문경시', '문경읍', '새재', '623']"
446,돌다리낚시터,경상북도 문경시 마성면 은성길 173,36.540228,128.232232,"['경상', '경상북도', '북도', '문경', '문경시', '마성', '마성면', '면', '은성', '은성길', '길', '173']"
447,우지낚시터,경상북도 문경시 갈밭길 7-13,36.540228,128.232232,"['경상', '경상북도', '북도', '문경', '문경시', '갈밭', '갈밭길', '길']"
448,암반수낚시터,경상북도 의성군 다인면 서부로 3018,36.46624748,128.3384845,"['경상', '경상북도', '북도', '의성', '의성군', '다인', '다인면', '면', '서부', '3018']"
449,대물낚시터,경상북도 포항시 북구 기계면 봉좌로383번길 32-2,36.08236536,129.1615819,"['경상', '경상북도', '북도', '포항', '포항시', '북구', '기계', '기계면', '면', '봉', '봉좌', '좌', '383', '383번길', '번', '길']"
450,두메낚시터,경상북도 경산시 남천면 신방길 39,35.760534,128.777194,"['경상', '경상북도', '북도', '경산', '경산시', '남천', '남천면', '면', '신방', '신방길', '길', '39']"
451,OK낚시터,경상북도 경주시 대추밭안길 18-7(조양동),35.7788,129.2764,"['경상', '경상북도', '북도', '경주', '경주시', '대추', '대추밭', '밭', '조양', '조양동', '동']"
452,평사낚시터,경상북도 경산시 진량읍 평사리 42-2,35.885503,128.871725,"['경상', '경상북도', '북도', '경산', '경산시', '진량', '진량읍', '평사리']"
453,삼사낚시터,경상북도 영천시 고경면 추곡길 215-12,35.98685782,129.0239398,"['경상', '경상북도', '북도', '영천', '영천시', '고경', '고경면', '면', '추곡', '추곡길', '길']"
454,지동낚시터,경상북도 안동시 임동면 고천지촌로 1061,36.50687533,128.9941229,"['경상', '경상북도', '북도', '안동', '안동시', '임동', '임동면', '면', '고', '고천지촌로', '천지', '촌로', '1061']"
455,선어대낚시터,경상북도 안동시 남선면 기느리길 252,36.54445316,128.773899,"['경상', '경상북도', '북도', '안동', '안동시', '남선', '남선면', '면', '기', '252']"
456,장기낚시터,경상북도 안동시 북후면 북평로 697-16,36.66993336,128.7024188,"['경상', '경상북도', '북도', '안동', '안동시', '북후', '북후면', '면', '북', '북평로', '평로']"
457,피싱카페낚시터,"광주광역시 동구 서석로85번길 8-13, 지하1층(대의동)",35.15032933,126.9205759,"['광주', '광주광역시', '동구', '석로', '석로85번길', '85', '번', '길', '지하', '지하1층', '1', '층', '대', '동']"
458,붕어의 신 실내낚시터,광주광역시 동구 중앙로 157(호남동),35.14828344,126.9129881,"['광주', '광주광역시', '동구', '중앙', '157', '호남', '호남동', '동']"
459,신가리낚시터,광주광역시 광산구 풍영철길로 190-23 (신가동),35.17240056,126.8285034,"['광주', '광주광역시', '광산', '광산구', '풍영', '풍영철길', '철길', '신가', '신가동', '동']"
460,상무낚시터,광주광역시 서구 유덕로141번길 31-1,35.16357724,126.8386542,"['광주', '광주광역시', '서구', '유덕', '141', '141번길', '번', '길']"
461,동화낚시터,대구광역시 북구 동변로 24길 106(동변동),35.92974,128.603563,"['대구', '대구광역시', '북구', '동변', '24', '24길', '길', '106', '동', '동변동', '변동']"
462,무태낚시터,"대구광역시 북구 연경동 570-14, 570-35",35.935017,128.608374,"['대구', '대구광역시', '북구', '연경', '연경동', '동']"
463,낭만물고기실내바다낚시터,대구광역시 북구 칠곡중앙대로 447(관음동),35.5609,128.3255,"['대구', '대구광역시', '북구', '곡', '중앙대', '447', '관음', '관음동', '동']"
464,눈큰실내낚시터,대구광역시 북구 태전로 57 (태전동),35.9254,128.54324,"['대구', '대구광역시', '북구', '태', '태전로', '전로', '57', '태전', '태전동', '전동', '동']"
465,비들지낚시터,대구광역시 군위군 군위읍 구지길 95,36.2031,128.5722,"['대구', '대구광역시', '군위', '군위군', '군위읍', '구지', '구지길', '길', '95']"
466,대평낚시터,대구광역시 달성군 하빈면 하빈로 832,35.93002896,128.4692446,"['대구', '대구광역시', '달성', '달성군', '하빈', '하빈면', '면', '로', '832']"
467,도채낚시터,대구광역시 달성군 하빈면 묘동3길 122-60,35.91802965,128.4215712,"['대구', '대구광역시', '달성', '달성군', '하빈', '하빈면', '면', '묘동', '묘동3길', '3', '길']"
468,가곡낚시터,대구광역시 달성군 하빈면 무등리 274,35.92279194,128.4667287,"['대구', '대구광역시', '달성', '달성군', '하빈', '하빈면', '면', '무등', '무등리', '리', '274']"
469,옥포낚시터,대구광역시 달성군 옥포읍 김흥리 408,35.747717,128.4924402,"['대구', '대구광역시', '달성', '달성군', '옥', '옥포읍', '포', '김', '김흥리', '흥', '리', '408']"
470,문양낚시터,대구광역시 달성군 다사읍 장귀미길 123,35.74332817,128.4354565,"['대구', '대구광역시', '달성', '달성군', '다사', '다사읍', '장귀', '장귀미길', '미', '길', '123']"
471,약산낚시터,대구광역시 달성군 논공읍 약산덧재길 159,35.74332817,128.4354565,"['대구', '대구광역시', '달성', '달성군', '논공', '논공읍', '약산', '재', '재길', '길', '159']"
472,Love낚시카페,"대전광역시 서구 관저로 160, 지하1층",36.29872121,127.3395894,"['대전', '대전광역시', '서구', '관저', '160', '지하', '지하1층', '1', '층']"
473,우명실내낚시터,대전광역시 서구 우명길 148(우명동),36.2287571,127.2935111,"['대전', '대전광역시', '서구', '우명', '우명길', '길', '148', '우명', '우명동', '동']"
474,제일낚시터,부산광역시 강서구 낙동북로73번가길 200-5 (강동동),35.22365536,128.940412,"['부산', '부산광역시', '강서', '강서구', '낙동', '낙동북로73번가', '북로', '73', '번가', '길', '강동', '강동동', '동']"
475,천성낚시터,부산광역시 강서구 거가대로 2571 (천성동),35.02301425,128.8095884,"['부산', '부산광역시', '강서', '강서구', '거가대', '2571', '천성', '천성동', '동']"
476,동선낚시터,부산광역시 강서구 동선길 107 (동선동),35.05283693,128.8324001,"['부산', '부산광역시', '강서', '강서구', '동선', '동선길', '길', '107', '동선', '동선동', '동']"
477,동삼어촌계 유어장 낚시터,부산광역시 영도구 하리해안길 17-5,35.06978643,129.0812768,"['부산', '부산광역시', '영도', '영도구', '하리', '하리해안길', '해안', '길']"
478,대원관광농원,"부산광역시 기장군 기장읍 내리길 57, 대원관광농원",35.211047,129.2039,"['부산', '부산광역시', '기장', '기장군', '기장읍', '길', '57', '대원', '대원관광농원', '관광', '농원']"
479,이오피쉬,"부산광역시 기장군 기장읍 대변로 153, 이오피쉬",35.2257,129.2288,"['부산', '부산광역시', '기장', '기장군', '기장읍', '대변', '153', '오피']"
480,용소사계절,"부산광역시 기장군 장안읍 기장대로 1665-73, 용소사계절",35.34273,129.24519,"['부산', '부산광역시', '기장', '기장군', '장안', '장안읍', '기장', '용소', '용소사계절', '사계절']"
481,부산실내바다낚시터,"부산광역시 북구 효열로 275, 지하1층 (금곡동)",35.26720059,129.0183491,"['부산', '부산광역시', '북구', '효열', '275', '지하', '지하1층', '1', '층', '금곡', '금곡동', '동']"
482,착한붕어 낚시카페,"서울 종로구 대학로8가길 52, 지하1층 (동숭동)",37.582964,127.002648,"['서울', '종로', '종로구', '대학로', '대학로8', '8', '길', '52', '지하', '지하1층', '1', '층', '동숭', '동숭동', '동']"
483,붕어의 신,서울 양천구 신월로 321,37.5217038,126.8565155,"['서울', '양천', '양천구', '신월', '321']"
484,입큰붕어낚시카페,"서울 은평구 은평로 101, 지하1층 (응암동)",37.600088,126.919079,"['서울', '은평', '은평구', '은', '은평로', '평로', '101', '지하', '지하1층', '1', '층', '응암', '응암동', '동']"
485,조치원낚시터,세종시 전동면 전동로 245,36.672891,127.269954,"['세종', '세종시', '전동', '전동면', '면', '전', '전동로', '동로', '245']"
486,잡아잡아낚시카페,세종시 조치원읍 새내16길 28,36.604395,127.298527,"['세종', '세종시', '조치원', '조치원읍', '새내', '새내16길', '16', '길', '28']"
487,용천농장낚시터,세종시 금남면 황토고개길 80-10,36.453638,127.233773,"['세종', '세종시', '금', '금남', '금남면', '남면', '면', '황토', '황토고개길', '고개길']"
488,송정유료낚시터,울산광역시 서생면 해맞이로 1331,35.3669,129.35324,"['울산', '울산광역시', '생면', '해맞이', '1331']"
489,원실내낚시터,울산광역시 울주군 온산읍 신온8길 20-6,35.4292604,129.3109347,"['울산', '울산광역시', '울주', '울주군', '온산', '온산읍', '신', '신온8길', '온', '8', '길']"
490,당사해양낚시공원,울산광역시 북구 용바위1길 58 (당사동),35.581079,129.455723,"['울산', '울산광역시', '북구', '용', '용바위1길', '바위', '1', '길', '58', '당사', '당사동', '동']"
491,해적바다실내낚시터,"울산광역시 동구 화잠로 105, 지하 1층 (방어동)",35.47849091,129.413984,"['울산', '울산광역시', '동구', '화', '화잠로', '잠로', '105', '지하', '1', '1층', '층', '방어', '방어동', '동']"
492,㈜정성레저,인천광역시 중구 백운로186번길 140-1 (중산동),37.51420751,126.5436932,"['인천', '인천광역시', '중구', '백운', '186', '186번길', '번', '길', '중산', '중산동', '동']"
493,포인트실내낚시카페낚시터,"인천광역시 중구 우현로 63, 몽벨,대한애경미용학원,이용화이비인후과 (내동)",37.4728317,126.6289879,"['인천', '인천광역시', '중구', '우', '우현로', '현로', '63', '몽', '몽벨', '벨', '대', '애경', '미용', '미용학원', '학원', '이용', '이비인후과', '내동']"
494,(주)영종레저,"인천광역시 중구 영종순환로 279-20, 만정낚시터 (중산동)",37.5154665,126.5499277,"['인천', '인천광역시', '중구', '영종', '영종순환', '순환', '만정', '만정낚시터', '중산', '중산동', '동']"
495,짱실내바다낚시터,"인천광역시 중구 서해대로417번길 2, 재향군인회관 (신흥동2가)",37.46419602,126.6330236,"['인천', '인천광역시', '중구', '서해', '417', '417번길', '번', '길', '2', '재향', '재향군인회관', '군인', '회관', '신흥', '신흥동', '신흥동2', '동']"
496,대동실내낚시터,"인천광역시 서구 심곡로 133, 대동아파트 지하1층 (심곡동)",37.545096,126.681837,"['인천', '인천광역시', '서구', '심곡', '133', '대동', '대동아파트', '아파트', '지하', '지하1층', '1', '층', '심곡', '심곡동', '동']"
497,두밀촌 낚시터,인천광역시 서구 두밀로 91 (대곡동),37.629433,126.669394,"['인천', '인천광역시', '서구', '밀', '91', '대곡', '대곡동', '동']"
498,인천 락 실내바다낚시터,인천광역시 서구 한서로 36-10 (백석동),37.580711,126.658825,"['인천', '인천광역시', '서구', '한서', '백석', '백석동', '동']"
499,놀이터 실내낚시터,"인천광역시 서구 가정로 208, 지하 1층 (석남동)",37.503558,126.672425,"['인천', '인천광역시', '서구', '가정', '208', '지하', '1', '1층', '층', '석남', '석남동', '동']"
500,가현산낚시터,인천광역시 서구 가현산로23번길 87 (마전동),37.621479,126.653353,"['인천', '인천광역시', '서구', '가현', '가현산로23번', '산로', '23', '번', '길', '87', '마', '마전', '마전동', '전동', '동']"
501,낭만물고기,"인천광역시 서구 검단로 492, 지하 1층 (마전동)",37.602425,126.658919,"['인천', '인천광역시', '서구', '로', '492', '지하', '1', '1층', '층', '마', '마전', '마전동', '전동', '동']"
502,내동저수지낚시터,인천광역시 옹진군 영흥면 내동로 100-15,37.267825,126.481138,"['인천', '인천광역시', '옹진', '옹진군', '영흥', '영흥면', '면', '내동']"
503,선재낚시터,"인천광역시 옹진군 영흥면 선재로265번길 103, 선재고물상",37.233879,126.538622,"['인천', '인천광역시', '옹진', '옹진군', '영흥', '영흥면', '면', '선재', '265', '265번길', '번', '길', '103', '선', '선재고물상', '재고', '물상']"
504,영흥바다낚시터,"인천광역시 옹진군 영흥면 영흥로176번길 21, 낚시터",37.264109,126.493789,"['인천', '인천광역시', '옹진', '옹진군', '영흥', '영흥면', '면', '176', '176번길', '번', '길', '21']"
505,선재 낚시공원 낚시터,인천광역시 옹진군 영흥면 선재로226번길 164,37.254311,126.521912,"['인천', '인천광역시', '옹진', '옹진군', '영흥', '영흥면', '면', '선재', '226', '226번길', '번', '길', '164']"
506,DMZ실내낚시터,"인천광역시 계양구 경명대로 1056, 지층 1호 (계산동)",37.54328641,126.7241381,"['인천', '인천광역시', '계양', '계양구', '경명', '1056', '지층', '1', '1호', '호', '계산', '계산동', '동']"
507,놀러와실내낚시터,"인천광역시 남동구 백범로 203, 지층 102호(만수동)",37.45945344,126.7261954,"['인천', '인천광역시', '남동', '남동구', '백범', '203', '지층', '102', '102호', '호', '만수', '만수동', '동']"
508,슈퍼붕 낚시카페,"인천광역시 남동구 백범로 417, 지하1층(간석동)",37.4672684,126.7025735,"['인천', '인천광역시', '남동', '남동구', '백범', '417', '지하', '지하1층', '1', '층', '간석', '간석동', '동']"
509,킹콩 실내낚시터,"인천광역시 남동구 구월로 291, 지하1층(만수동)",37.4558425,126.7207845,"['인천', '인천광역시', '남동', '남동구', '구월', '291', '지하', '지하1층', '1', '층', '만수', '만수동', '동']"
510,얼빵실내 낚시터,"인천광역시 남동구 인주대로 580, 지하 2층(구월동)",37.4497578,126.6991131,"['인천', '인천광역시', '남동', '남동구', '인주', '580', '지하', '2', '2층', '층', '구월', '구월동', '동']"
511,또와또 실내낚시터,인천광역시 남동구 남동대로 881 지하층(간석동),37.4656135,126.707077,"['인천', '인천광역시', '남동', '남동구', '881', '지하층', '간석', '간석동', '동']"
512,남촌낚시터,인천광역시 남동구 남촌로 67번길 60-3(남촌동),37.4266899,126.7128884,"['인천', '인천광역시', '남동', '남동구', '남', '남촌로', '촌로', '67', '67번길', '번', '길', '남촌', '남촌동', '동']"
513,소래바다낚시터,인천광역시 남동구 소래로 154번길 25-40(논현동),37.40682335,126.7405419,"['인천', '인천광역시', '남동', '남동구', '소래', '154', '154번길', '번', '길', '논현', '논현동', '동']"
514,도시어부낚시카페,"인천광역시 미추홀구 주안로104번길 24, 지하2층제2호(주안동)",37.46282174,126.6809926,"['인천', '인천광역시', '미추홀', '미추홀구', '주안', '104', '104번길', '번', '길', '24', '지하', '지하2층제2', '2', '층제', '호', '주안', '주안동', '동']"
515,파도실내바다낚시터,"인천광역시 미추홀구 인주대로 438, 지하층(주안동)",37.45074476,126.6853843,"['인천', '인천광역시', '미추홀', '미추홀구', '인주', '438', '지하층', '주안', '주안동', '동']"
516,주주실내낚시클럽,"인천광역시 미추홀구 주안로 113, 덕진빌딩 지하2층 (주안동)",37.46425733,126.6822339,"['인천', '인천광역시', '미추홀', '미추홀구', '주안', '113', '덕', '빌딩', '지하', '지하2층', '2', '층', '주안', '주안동', '동']"
517,황산초지사계절바다낚시터,인천광역시 강화군 길상면,37.62125051,126.5347876,"['인천', '인천광역시', '강화', '강화군', '길상', '길상면', '면']"
518,어류정낚시터,인천광역시 강화군 삼산면,37.66107251,126.336902,"['인천', '인천광역시', '강화', '강화군', '삼산', '삼산면', '면']"
519,강화선두바다낚시터,인천광역시 강화군 길상면,37.60086755,126.4935967,"['인천', '인천광역시', '강화', '강화군', '길상', '길상면', '면']"
520,강화바다낚시터,인천광역시 강화군 길상면,37.60690383,126.5168784,"['인천', '인천광역시', '강화', '강화군', '길상', '길상면', '면']"
521,난정낚시터,인천광역시 강화군 교동면,37.78689753,126.2320705,"['인천', '인천광역시', '강화', '강화군', '교동', '교동면', '면']"
522,흥왕낚시터,인천광역시 강화군 화도면,37.59560307,126.4203356,"['인천', '인천광역시', '강화', '강화군', '화도', '화도면', '면']"
523,길상낚시터,인천광역시 강화군 길상면,37.62515984,126.5012775,"['인천', '인천광역시', '강화', '강화군', '길상', '길상면', '면']"
524,선두포낚시터,인천광역시 강화군 길상면,37.634462,126.464612,"['인천', '인천광역시', '강화', '강화군', '길상', '길상면', '면']"
525,하리낚시터,인천광역시 강화군 삼산면,37.7404128,126.2899256,"['인천', '인천광역시', '강화', '강화군', '삼산', '삼산면', '면']"
526,서검낚시터,인천광역시 강화군 삼산면,37.724996,126.226164,"['인천', '인천광역시', '강화', '강화군', '삼산', '삼산면', '면']"
527,동검낚시터,인천광역시 강화군 길상면,37.58768059,126.5222735,"['인천', '인천광역시', '강화', '강화군', '길상', '길상면', '면']"
528,양오낚시터,인천광역시 강화군 송해면,37.80023879,126.4474212,"['인천', '인천광역시', '강화', '강화군', '송해', '송해면', '면']"
529,고구낚시터,인천광역시 강화군 교동면,37.79635,126.292765,"['인천', '인천광역시', '강화', '강화군', '교동', '교동면', '면']"
530,항포낚시터,인천광역시 강화군 삼산면,37.70636707,126.2840291,"['인천', '인천광역시', '강화', '강화군', '삼산', '삼산면', '면']"
531,양사낚시터,인천광역시 강화군 양사면,37.80536372,126.423815,"['인천', '인천광역시', '강화', '강화군', '양사', '양사면', '면']"
532,신선지낚시터,인천광역시 강화군 내가면,37.72045498,126.4152577,"['인천', '인천광역시', '강화', '강화군']"
533,길정낚시터,인천광역시 강화군 양도면,37.66259233,126.467195,"['인천', '인천광역시', '강화', '강화군', '양도', '양도면', '면']"
534,오류내낚시터,인천광역시 강화군 송해면,37.75926215,126.4520722,"['인천', '인천광역시', '강화', '강화군', '송해', '송해면', '면']"
535,국화낚시터,인천광역시 강화군 강화읍,37.74460253,126.4619292,"['인천', '인천광역시', '강화', '강화군', '강화읍']"
536,내가낚시터,인천광역시 강화군 내가면,37.72518794,126.3936217,"['인천', '인천광역시', '강화', '강화군']"
537,황청낚시터,인천광역시 강화군 내가면,37.71508509,126.3638447,"['인천', '인천광역시', '강화', '강화군']"
538,인산낚시터,인천광역시 강화군 양도면 중앙로787번길 8-2,37.69854279,126.4312672,"['인천', '인천광역시', '강화', '강화군', '양도', '양도면', '면', '중앙', '787', '787번길', '번', '길']"
539,땅끝낚시터,"전라남도 해남군 송지면 갈산길 93, 땅끝낚시터",34.30556,126.516116,"['전라', '전라남', '전라남도', '남도', '해남', '해남군', '송지', '송지면', '면', '산길', '93', '땅', '땅끝낚시터', '끝']"
540,해남바다낚시터,"전라남도 해남군 화원면 영호길 42-18, 구성리 지선",34.700681,126.347798,"['전라', '전라남', '전라남도', '남도', '해남', '해남군', '화원', '화원면', '면', '영호', '영호길', '길', '성리', '지선']"
541,정남진 해양낚시공원,전라남도 장흥군 회진면 해양낚시길 135,34.4706335,126.9740566,"['전라', '전라남', '전라남도', '남도', '장흥', '장흥군', '회진', '회진면', '면', '해양', '해양낚시길', '낚시', '길', '135']"
542,거금해양낚시공원,전라남도 고흥군 금산면 신촌내동길 18-132,34.46942797,127.104524,"['전라', '전라남', '전라남도', '남도', '고흥', '고흥군', '금산', '금산면', '면', '촌', '촌내동길', '내동', '길']"
543,홍길동낚시터,전라남도 장성군 삼서면 영장로 2103,35.2346229,126.701275,"['전라', '전라남', '전라남도', '남도', '장성', '장성군', '삼서', '삼서면', '면', '영', '영장로', '장로', '2103']"
544,황룡강낚시터,전라남도 장성군 장성읍 강변안길 18,35.297111,126.775019,"['전라', '전라남', '전라남도', '남도', '장성', '장성군', '장성읍', '강변', '강변안길', '안', '길', '18']"
545,청풍낚시터,전라남도 화순군 청풍면 차풍로 370,34.90460529,126.9802482,"['전라', '전라남', '전라남도', '남도', '화순', '화순군', '청풍', '청풍면', '면', '차', '차풍로', '풍로', '370']"
546,앵남낚시터,전라남도 화순군 화순읍 앵무동1길 132,35.05032669,126.924278,"['전라', '전라남', '전라남도', '남도', '화순', '화순군', '화순읍', '앵무', '앵무동1길', '동', '1', '길', '132']"
547,소경어촌계낚시터,전라남도 여수시 소경도1길 15-1,34.70848891,127.707826,"['전라', '전라남', '전라남도', '남도', '여수', '여수시', '소경도', '소경도1길', '1', '길']"
548,외동어촌계낚시터,전라남도 여수시 대경도4길 41-1,34.71856636,127.729462,"['전라', '전라남', '전라남도', '남도', '여수', '여수시', '대경도', '대경도4길', '4', '길']"
549,돌산해양낚시공원낚시터,전라남도 여수시 돌산읍 우두1길 12-13,34.727104,127.73669,"['전라', '전라남', '전라남도', '남도', '여수', '여수시', '돌산', '돌산읍', '우두', '우두1길', '1', '길']"
550,여수가족생활낚시터,전라남도 여수시 신월1길 42 1층 신월슈퍼,34.4258515,127.4255849,"['전라', '전라남', '전라남도', '남도', '여수', '여수시', '신월', '신월1길', '1', '길', '42', '1층', '층', '신월슈퍼', '슈퍼']"
551,현대낚시터,"전라남도 해남군 화원면 영호길 42-7, 민물과 바다",34.700457,126.347734,"['전라', '전라남', '전라남도', '남도', '해남', '해남군', '화원', '화원면', '면', '영호', '영호길', '길', '민물', '바다']"
552,대광낚시터,"전라남도 해남군 화원면 영호길 42-17, 대광낚시",34.700457,126.347734,"['전라', '전라남', '전라남도', '남도', '해남', '해남군', '화원', '화원면', '면', '영호', '영호길', '길', '광', '광낚시', '낚시']"
553,목포바지선포인트선상,"전라남도 해남군 화원면 영호길 42-7, 민물과 바다",34.700457,126.347734,"['전라', '전라남', '전라남도', '남도', '해남', '해남군', '화원', '화원면', '면', '영호', '영호길', '길', '민물', '바다']"
554,해남별암낚시터,"전라남도 해남군 화원면 영호길 42-7, 민물과 바다",34.700457,126.347734,"['전라', '전라남', '전라남도', '남도', '해남', '해남군', '화원', '화원면', '면', '영호', '영호길', '길', '민물', '바다']"
555,현대바다낚시터,"전라남도 해남군 화원면 영호길 42-7, 민물과 바다",34.700457,126.347734,"['전라', '전라남', '전라남도', '남도', '해남', '해남군', '화원', '화원면', '면', '영호', '영호길', '길', '민물', '바다']"
556,해남화원낚시터,"전라남도 해남군 화원면 영호길 42-7, 민물과 바다",34.700457,126.347734,"['전라', '전라남', '전라남도', '남도', '해남', '해남군', '화원', '화원면', '면', '영호', '영호길', '길', '민물', '바다']"
557,대광낚시터 2호,"전라남도 해남군 화원면 영호길 42-7, 민물과 바다",34.700457,126.347734,"['전라', '전라남', '전라남도', '남도', '해남', '해남군', '화원', '화원면', '면', '영호', '영호길', '길', '민물', '바다']"
558,활주로낚시터,"전라남도 나주시 산포면 등정덕례길 54, 활주로낚시터랜드",35.0467,126.8193,"['전라', '전라남', '전라남도', '남도', '나주', '나주시', '산포', '산포면', '면', '등', '등정덕례길', '정덕', '례', '길', '54', '활주로', '활주로낚시터랜드', '랜드']"
559,콜낚시,전라남도 신안군 압해읍 장감길 220,34.81904166,126.3346096,"['전라', '전라남', '전라남도', '남도', '신안', '신안군', '압해', '압해읍', '장감', '장감길', '길', '220']"
560,나룻가낚시터,전라남도 신안군 압해읍 복룡로 669-4,34.90692907,126.3383241,"['전라', '전라남', '전라남도', '남도', '신안', '신안군', '압해', '압해읍', '복룡']"
561,신안낚시터,"전라남도 신안군 압해읍 복룡로 688-6, 복룡횟집",34.90533275,126.3383433,"['전라', '전라남', '전라남도', '남도', '신안', '신안군', '압해', '압해읍', '복룡', '복룡횟집', '횟집']"
562,해성낚시터,전라남도 신안군 천사로 15,34.483486,126.2092,"['전라', '전라남', '전라남도', '남도', '신안', '신안군', '천사', '15']"
563,복룡낚시터,전라남도 신안군 압해읍 압해로 867,34.5441767,126.1947507,"['전라', '전라남', '전라남도', '남도', '신안', '신안군', '압해', '압해읍', '867']"
564,홀통낚시터,전라남도 무안군 현경면 홀통길 198,35.061723,126.332241,"['전라', '전라남', '전라남도', '남도', '무안', '무안군', '현경', '현경면', '면', '홀', '홀통길', '통', '길', '198']"
565,가우도 복합낚시공원,전라남도 강진군 도암면 가우도길 2-13,34.56687,126.72371,"['전라', '전라남', '전라남도', '남도', '강진', '강진군', '도암', '도암면', '면', '가우도', '가우도길', '길']"
566,서중어촌체험마을,전라남도 강진군 마량면 까막섬로 75-7,34.47072,126.82785,"['전라', '전라남', '전라남도', '남도', '강진', '강진군', '마량', '마량면', '면', '섬']"
567,자바라,전라북도 전주시 완산구 평화로 69,35.7830203,127.1331617,"['전라', '전라북', '전라북도', '북도', '전주', '전주시', '완산', '완산구', '평화', '69']"
568,송현낚시터,"전라북도 완주군 고산면 남봉로 5-98, 송현낚시터",35.9679,127.1867,"['전라', '전라북', '전라북도', '북도', '완주', '완주군', '고산', '고산면', '면', '남', '남봉로', '봉로', '송', '송현낚시터', '현']"
569,산외 강현낚시터,전라북도 정읍시 산외면 상두1길 11-17,35.6315183,127.0596968,"['전라', '전라북', '전라북도', '북도', '정읍', '정읍시', '산외', '산외면', '면', '상두', '상두1길', '1', '길']"
570,우정낚시터,전라북도 정읍시 소성면 소성상평로 238,35.5603433,126.8053888,"['전라', '전라북', '전라북도', '북도', '정읍', '정읍시', '소성', '소성면', '면', '소성', '평로', '238']"
571,신시도 유료낚시터,전라북도 군산시 옥도면 신시도길 40,35.81812509,126.4490189,"['전라', '전라북', '전라북도', '북도', '군산', '군산시', '옥도', '옥도면', '면', '신시', '길', '40']"
572,낚GO먹GO,"전라북도 군산시 수송로 17, 수리야 (나운동)",35.96827111,126.6987553,"['전라', '전라북', '전라북도', '북도', '군산', '군산시', '수송로', '17', '수리', '나운', '나운동', '동']"
573,호암낚시터,"전라북도 임실군 신평면 호암3길 1-20, 호암사계절낚시터",35.654754,127.24716,"['전라', '전라북', '전라북도', '북도', '임실', '임실군', '신평', '신평면', '면', '호암', '호암3길', '3', '길', '호암사계절낚시터', '사계절']"
574,자연을닮은사람들,전라북도 임실군 관촌면 용산리 176-6 자연을닮은사람들,35.645866,127.286135,"['전라', '전라북', '전라북도', '북도', '임실', '임실군', '관촌', '관촌면', '면', '용산리', '자연', '사람']"
575,백화낚시터,전라북도 진안군 안천면 진무로 3206,35.90144004,127.574178,"['전라', '전라북', '전라북도', '북도', '진안', '진안군', '안천', '안천면', '면', '진무', '3206']"
576,바지선 선상낚시,제주도 서귀포시 토평동 516 남측 450m 지선,33.24568966,126.5775385,"['제주', '제주도', '서귀포', '서귀포시', '토평', '토평동', '동', '516', '남', '남측', '측', '450', '지선']"
577,계룡 낚시터,충청남도 공주시 계룡면 하대리 485-1(계룡저수지),36.36086703,127.1576725,"['충청남', '충청남도', '공주', '공주시', '계룡', '계룡면', '면', '하대', '계룡저수지', '저수지']"
578,정안 낚시터,충청남도 공주시 정안면 운궁리 327-4,36.5804523,127.110813,"['충청남', '충청남도', '공주', '공주시', '정안', '정안면', '면', '궁리']"
579,능애 낚시터,충청남도 공주시 정안면 평정리 529-1(평정저수지),36.55407334,127.083822,"['충청남', '충청남도', '공주', '공주시', '정안', '정안면', '면', '평정', '평', '평정저수지', '정저', '수지']"
580,월곡 낚시터,충청남도 공주시 의당면 월곡리 4-3(월곡저수지),36.53973952,127.162541,"['충청남', '충청남도', '공주', '공주시', '의당', '의당면', '면', '월', '월곡', '곡', '월', '월곡저수지', '저수지']"
581,경천 낚시터,충청남도 공주시 계룡면 양화리(경천저수지),36.3339378,127.1718409,"['충청남', '충청남도', '공주', '공주시', '계룡', '계룡면', '면', '양화', '양화리', '리', '경천', '경천저수지', '저수지']"
582,행복 낚시터,충청남도 공주시 의당면 두만리 28(요룡저수지),36.54898473,127.1448196,"['충청남', '충청남도', '공주', '공주시', '의당', '의당면', '면', '만리', '28', '요', '요룡저수지', '룡', '저수지']"
583,우목 낚시터,충청남도 공주시 우성면 용봉리 700(우목저수지),36.4405707,127.009396,"['충청남', '충청남도', '공주', '공주시', '우성', '우성면', '면', '용', '용봉리', '봉리', '700', '목', '목저수지', '저수지']"
584,중흥 낚시터,충청남도 공주시 의당면 도신리 487(중흥저수지),36.57675859,127.1725335,"['충청남', '충청남도', '공주', '공주시', '의당', '의당면', '면', '도신', '도신리', '리', '487', '중흥', '중흥저수지', '저수지']"
585,고성 낚시터,충청남도 공주시 정안면 고성리(고성저수지),36.58824678,127.0916593,"['충청남', '충청남도', '공주', '공주시', '정안', '정안면', '면', '고성', '고성리', '리', '고성저수지', '저수지']"
586,명곡 낚시터,충청남도 공주시 유구읍 명곡리 436-3(명곡저수지),36.59894926,126.9385268,"['충청남', '충청남도', '공주', '공주시', '유구', '유구읍', '명곡', '명곡저수지', '저수지']"
587,큰목길낚시터,충청남도 공주시 공주시 옥룡동 상왕통286,36.47066341,127.0771193,"['충청남', '충청남도', '공주', '공주시', '옥룡', '옥룡동', '동', '상왕', '상왕통286', '통', '286']"
588,자연농원,충청남도 공주시 공주시 정안면 광정리200-5,36.47066341,127.0771193,"['충청남', '충청남도', '공주', '공주시', '정안', '정안면', '면', '광', '광정리', '정리']"
589,우성낚시터,충청남도 공주시 공주시 우성면 상서리114-2,36.47066341,127.0771193,"['충청남', '충청남도', '공주', '공주시', '우성', '우성면', '면', '상', '상서리', '서리']"
590,훼미리낚시터,충청남도 공주시 공주시 상왕동 779-7,36.47066341,127.0771193,"['충청남', '충청남도', '공주', '공주시', '상왕', '상왕동', '동']"
591,그린 낚시터,충청남도 공주시 계룡면 중장리 101,36.37153325,127.1686461,"['충청남', '충청남도', '공주', '공주시', '계룡', '계룡면', '면', '중장', '중장리', '리', '101']"
592,추정실내낚시터,충청남도 금산군 추부면 추동2길 91,36.1712002,127.4647171,"['충청남', '충청남도', '금산', '금산군', '추부', '추부면', '면', '추동', '추동2길', '2', '길', '91']"
593,배내미낚시터,충청남도 금산군 복수면 배내미로 107,36.15089,127.40153,"['충청남', '충청남도', '금산', '금산군', '복수', '복수면', '면', '배내', '배내미로', '미로', '107']"
594,수정낚시터,충청남도 금산군 군북면 군북로 1057,36.1973735,127.5203,"['충청남', '충청남도', '금산', '금산군', '군', '군북', '군북면', '북면', '면', '군북로', '북로', '1057']"
595,월선 낚시터,충청남도 아산시 영인면 아산로1233번길 54,36.873699,126.931875,"['충청남', '충청남도', '아산', '아산시', '영인', '영인면', '면', '1233', '1233번길', '번', '길', '54']"
596,신왕지낚시터,충청남도 아산시 둔포면 이화동길115번길 50,36.9142133,127.0875782,"['충청남', '충청남도', '아산', '아산시', '둔포', '둔포면', '면', '이화', '이화동', '이화동길115번', '동', '길', '115', '번', '50']"
597,오목낚시터,충청남도 아산시 신창면 서부남로675번길 48,36.7955718,126.933069,"['충청남', '충청남도', '아산', '아산시', '신창', '신창면', '면', '서부', '서부남로675번', '남로', '675', '번', '길', '48']"
598,송악 낚시터,충청남도 아산시 송악면 송악로 560,36.7214327,126.9898213,"['충청남', '충청남도', '아산', '아산시', '송악', '송악면', '면', '송악', '560']"
599,산들 낚시터,충청남도 아산시 배방읍 고불로 229,36.725676,127.0596219,"['충청남', '충청남도', '아산', '아산시', '배방읍', '불로', '229']"
600,냉정 낚시터,충청남도 아산시 인주면 서해로548번길 158,36.868245,126.904669,"['충청남', '충청남도', '아산', '아산시', '인주', '인주면', '면', '서해', '548', '548번길', '번', '길', '158']"
601,월랑 낚시터,충청남도 아산시 음봉면 월랑길 15-10,36.8436697,127.0804385,"['충청남', '충청남도', '아산', '아산시', '음봉', '음봉면', '면', '월랑', '월랑길', '길']"
602,대동 낚시터,충청남도 아산시 음봉면 송촌리 34,36.84784,127.046914,"['충청남', '충청남도', '아산', '아산시', '음봉', '음봉면', '면', '송', '송촌리', '촌리', '34']"
603,신수 낚시터,충청남도 아산시 음봉면 신수리 51-1,36.843918,126.99831,"['충청남', '충청남도', '아산', '아산시', '음봉', '음봉면', '면', '신수']"
604,염치 낚시터,충청남도 아산시 염치읍 동정길 159-4,36.821763,126.993657,"['충청남', '충청남도', '아산', '아산시', '염치', '염치읍', '동정', '동정길', '길']"
605,신휴 낚시터,충청남도 아산시 음봉면 신휴길122,36.8910242,127.0704905,"['충청남', '충청남도', '아산', '아산시', '음봉', '음봉면', '면', '신', '신휴길122', '휴', '길', '122']"
606,봉재 낚시터,충청남도 아산시 둔포면 충무로 1258-32,36.883092,127.032207,"['충청남', '충청남도', '아산', '아산시', '둔포', '둔포면', '면', '충무']"
607,안골 낚시터,충청남도 아산시 영인면 고룡산로 448,36.8789658,126.9878422,"['충청남', '충청남도', '아산', '아산시', '영인', '영인면', '면', '고', '고룡산로', '룡', '산로', '448']"
608,죽산 낚시터,충청남도 아산시 선장면 서부남로 344,36.7857711,126.8978959,"['충청남', '충청남도', '아산', '아산시', '선', '선장', '선장면', '장면', '면', '서부', '서부남로', '남로', '344']"
609,신봉 낚시터,충청남도 아산시 영인면 윤보선로211,36.8943151,127.0039684,"['충청남', '충청남도', '아산', '아산시', '영인', '영인면', '면', '윤보선', '211']"
610,영인 낚시터,충청남도 아산시 영인면 영인로 159-20,36.8627459,126.9487696,"['충청남', '충청남도', '아산', '아산시', '영인', '영인면', '면', '영인']"
611,잔실 낚시터,충청남도 아산시 음봉면 신정리 397,36.8735582,127.0167286,"['충청남', '충청남도', '아산', '아산시', '음봉', '음봉면', '면', '신', '신정리', '정리', '397']"
612,삽교천 낚시터,충청남도 아산시 인주면 아산만로1363,36.8526333,126.8545664,"['충청남', '충청남도', '아산', '아산시', '인주', '인주면', '면', '아산만', '아산만로1363', '로', '1363']"
613,동암 낚시터,충청남도 아산시 음봉면 음봉로447번길 50,36.8469204,127.0604064,"['충청남', '충청남도', '아산', '아산시', '음봉', '음봉면', '면', '음', '음봉로447번', '봉로', '447', '번', '길', '50']"
614,낭만물고기실내낚시카페,"충청남도 아산시 배방읍 배방로13번길 23, 2층",36.775944,127.056904,"['충청남', '충청남도', '아산', '아산시', '배방', '배방읍', '배', '배방로13번', '방로', '13', '번', '길', '23', '2', '2층', '층']"
615,아산락실내바다낚시터,충청남도 아산시 염치읍 백암길 148-1,36.8058557,127.0359602,"['충청남', '충청남도', '아산', '아산시', '염치', '염치읍', '암', '암길', '길']"
616,서부낚시터,충청남도 서천군 종천면 대백제로 1458,36.12103723,126.692348,"['충청남', '충청남도', '서천', '서천군', '종천', '종천면', '면', '대', '대백제', '백제', '1458']"
617,배다리낚시터,충청남도 서천군 서면 주원로 10-3,36.15600648,126.572178,"['충청남', '충청남도', '서천', '서천군', '서면', '주원']"
618,창리해상낚시터,충청남도 서산시 부석면 창리 지선,36.369181,126.224581,"['충청남', '충청남도', '서산', '서산시', '부석', '부석면', '면', '창', '창리', '리', '지선']"
619,덕송지낚시터,충청남도 서산시 팔봉면 덕송리 842-5,36.835062,126.339584,"['충청남', '충청남도', '서산', '서산시', '팔봉', '팔봉면', '면', '덕', '덕송리', '송리']"
620,대요낚시터,충청남도 서산시 지곡면 대요리 713,36.886992,126.428141,"['충청남', '충청남도', '서산', '서산시', '지곡', '지곡면', '면', '대', '대요리', '요리', '713']"
621,수신낚시터,"충청남도 천안시 동남구 수신면 발산1길 147-106, 수신낚시터",36.71158316,127.2940376,"['충청남', '충청남도', '천안', '천안시', '동', '동남구', '남구', '수신', '수신면', '면', '발산', '발산1길', '1', '길', '수신', '수신낚시터']"
622,마정낚시터,충청남도 천안시 서북구 직산읍 금곡로 176,36.87443248,127.0999291,"['충청남', '충청남도', '천안', '천안시', '서', '서북구', '북구', '직', '직산읍', '산읍', '금곡', '176']"
623,남창낚시터,"충청남도 천안시 서북구 성거읍 보명사길 62, 남창낚시터",36.86121783,127.1990668,"['충청남', '충청남도', '천안', '천안시', '서', '서북구', '북구', '성거', '성거읍', '보명', '보명사길', '사', '길', '62', '남창', '남창낚시터']"
624,무네미낚시터,충청남도 천안시 동남구 동면 장송죽계길 40,36.78076246,127.3704271,"['충청남', '충청남도', '천안', '천안시', '동', '동남구', '남구', '동면', '장', '장송죽', '송죽', '길', '40']"
625,부대낚시터,"충청남도 천안시 서북구 안터길 38-29, 부대동낚시터 (부대동)",36.84090025,127.1590725,"['충청남', '충청남도', '천안', '천안시', '서', '서북구', '북구', '안', '길', '부대', '부대동', '부대동낚시터', '동']"
626,신월낚시터,"충청남도 천안시 서북구 성거읍 신월길 165-29, 신월낚시터",36.86809119,127.1646074,"['충청남', '충청남도', '천안', '천안시', '서', '서북구', '북구', '성거', '성거읍', '신월', '신월길', '길', '신월낚시터']"
627,석곡낚시터,"충청남도 천안시 서북구 직산읍 부송로 43-38, 석곡낚시터",36.89071113,127.1028245,"['충청남', '충청남도', '천안', '천안시', '서', '서북구', '북구', '직', '직산읍', '산읍', '부', '부송로', '송로', '석곡', '석곡낚시터']"
628,덕성낚시터,충청남도 천안시 동남구 동면 덕성1길 52,36.80984881,127.3697076,"['충청남', '충청남도', '천안', '천안시', '동', '동남구', '남구', '동면', '덕성', '덕성1길', '1', '길', '52']"
629,방축낚시터,충청남도 천안시 서북구 직산읍 군동3길 26,36.89959299,127.1693812,"['충청남', '충청남도', '천안', '천안시', '서', '서북구', '북구', '직', '직산읍', '산읍', '군동3길', '동', '3', '길', '26']"
630,천북 해양낚시터,충청남도 보령시 천북면 장은리 굴단지 앞 해상,36.50629,126.48156,"['충청남', '충청남도', '보령', '보령시', '천북', '천북면', '면', '장', '리', '굴', '굴단지', '단지', '앞', '해상']"
631,원산도 선촌 해양낚시터,충청남도 보령시 원산도리 540지선,36.385009,126.42969,"['충청남', '충청남도', '보령', '보령시', '원산도', '원산도리', '리', '540', '540지선', '지선']"
632,숲속애바다실내낚시터,충청남도 보령시 통나무1길 80,36.329072,126.52855,"['충청남', '충청남도', '보령', '보령시', '통', '통나무1길', '나무', '1', '길', '80']"
633,포인트낚시터,충청남도 예산군 광시면 광시동로 105-6,36.5512335,126.7836066,"['충청남', '충청남도', '예산', '예산군', '광시', '광시면', '면', '광', '광시동', '시동']"
634,붕어나라낚시터,충청남도 예산군 광시면 동산리 80,36.583353,126.798536,"['충청남', '충청남도', '예산', '예산군', '광시', '광시면', '면', '동산리', '80']"
635,애플낚시터,충청남도 예산군 광시면 동산리 91-2,36.584366,126.796354,"['충청남', '충청남도', '예산', '예산군', '광시', '광시면', '면', '동산리']"
636,장전정자나무낚시터,충청남도 예산군 광시면 예당남로 41,36.58614175,126.7983663,"['충청남', '충청남도', '예산', '예산군', '광시', '광시면', '면', '예당', '예당남로', '남로', '41']"
637,평촌낚시터,충청남도 예산군 광시면 예당남로 110-10,36.58894344,126.8057143,"['충청남', '충청남도', '예산', '예산군', '광시', '광시면', '면', '예당', '예당남로', '남로']"
638,장전낚시터,충청남도 예산군 광시면 예당남로 203,36.59355949,126.8112912,"['충청남', '충청남도', '예산', '예산군', '광시', '광시면', '면', '예당', '예당남로', '남로', '203']"
639,예당저수지연안낚시터,충청남도 예산군 대흥면 예당로 874,36.59488,126.795895,"['충청남', '충청남도', '예산', '예산군', '대흥', '대흥면', '면', '예', '예당로', '당로', '874']"
640,오리장낚시터,충청남도 예산군 광시면 장전리 613,36.595285,126.796931,"['충청남', '충청남도', '예산', '예산군', '광시', '광시면', '면', '장전', '장전리', '리', '613']"
641,도덕골낚시터,충청남도 예산군 광시면 예당남로 224-14,36.59536057,126.8132112,"['충청남', '충청남도', '예산', '예산군', '광시', '광시면', '면', '예당', '예당남로', '남로']"
642,낚시여행낚시터,충청남도 예산군 대흥면 송지리 73,36.600009,126.812147,"['충청남', '충청남도', '예산', '예산군', '대흥', '대흥면', '면', '송', '송지리', '지리', '73']"
643,임존성낚시터,충청남도 예산군 대흥면 상중리 26,36.602548,126.794878,"['충청남', '충청남도', '예산', '예산군', '대흥', '대흥면', '면', '상', '상중리', '중리', '26']"
644,예당임존성낚시터,충청남도 예산군 대흥면 상중리 26,36.602548,126.794878,"['충청남', '충청남도', '예산', '예산군', '대흥', '대흥면', '면', '상', '상중리', '중리', '26']"
645,예당낚시터,충청남도 예산군 대흥면 예당로 832-9,36.60288989,126.7934516,"['충청남', '충청남도', '예산', '예산군', '대흥', '대흥면', '면', '예당']"
646,그린낚시터,충청남도 예산군 대흥면 예당로 836,36.60380705,126.793591,"['충청남', '충청남도', '예산', '예산군', '대흥', '대흥면', '면', '예', '예당로', '당로', '836']"
647,피쉬뱅크낚시터,충청남도 예산군 대흥면 상중리 2,36.606861,126.794082,"['충청남', '충청남도', '예산', '예산군', '대흥', '대흥면', '면', '상', '상중리', '중리', '2']"
648,연안낚시터,충청남도 예산군 대흥면 예당로 874,36.60715312,126.7929425,"['충청남', '충청남도', '예산', '예산군', '대흥', '대흥면', '면', '예', '예당로', '당로', '874']"
649,대양낚시터,충청남도 예산군 대흥면 동서리 182,36.609295,126.791431,"['충청남', '충청남도', '예산', '예산군', '대흥', '대흥면', '면', '동', '동서리', '서리', '182']"
650,2박3일낚시터,충청남도 예산군 대흥면 하탄방리 154-1,36.611772,126.820533,"['충청남', '충청남도', '예산', '예산군', '대흥', '대흥면', '면', '하', '방리']"
651,낚시회관낚시터,충청남도 예산군 대흥면 동서리 245,36.612138,126.792641,"['충청남', '충청남도', '예산', '예산군', '대흥', '대흥면', '면', '동', '동서리', '서리', '245']"
652,인천낚시터,충청남도 예산군 대흥면 대야리 86,36.615188,126.808158,"['충청남', '충청남도', '예산', '예산군', '대흥', '대흥면', '면', '대야', '대야리', '리', '86']"
653,새물낚시터,충청남도 예산군 신양면 무봉리 295,36.617006,126.824655,"['충청남', '충청남도', '예산', '예산군', '신양', '신양면', '면', '봉리', '295']"
654,만수낚시터,충청남도 예산군 대흥면 교촌리 317,36.617511,126.790705,"['충청남', '충청남도', '예산', '예산군', '대흥', '대흥면', '면', '교', '교촌리', '촌리', '317']"
655,교촌낚시터,충청남도 예산군 대흥면 교촌리 301,36.620048,126.788601,"['충청남', '충청남도', '예산', '예산군', '대흥', '대흥면', '면', '교', '교촌리', '촌리', '301']"
656,검은솔밭낚시터,충청남도 예산군 대흥면 신속대야로 245-29,36.62033248,126.806525,"['충청남', '충청남도', '예산', '예산군', '대흥', '대흥면', '면', '신속', '신속대야', '대야']"
657,정자낚시터,충청남도 예산군 대흥면 금마로 776,36.62139332,126.7762188,"['충청남', '충청남도', '예산', '예산군', '대흥', '대흥면', '면', '금', '금마', '마', '776']"
658,하와이낚시터,충청남도 예산군 대흥면 신속대야로 294,36.62530884,126.8089246,"['충청남', '충청남도', '예산', '예산군', '대흥', '대흥면', '면', '신속', '신속대야', '대야', '294']"
659,월척낚시터,충청남도 예산군 응봉면 신리 46,36.626387,126.793371,"['충청남', '충청남도', '예산', '예산군', '응봉', '응봉면', '면', '신', '신리', '리', '46']"
660,진수낚시터,충청남도 예산군 응봉면 예당로 1131,36.62775911,126.7898603,"['충청남', '충청남도', '예산', '예산군', '응봉', '응봉면', '면', '예', '예당로', '당로', '1131']"
661,무지개낚시터,충청남도 예산군 대흥면 신속대야로 356,36.62829339,126.8136337,"['충청남', '충청남도', '예산', '예산군', '대흥', '대흥면', '면', '신속', '신속대야', '대야', '356']"
662,한믈낚시터,충청남도 예산군 응봉면 후사리 33,36.6395509,126.801398,"['충청남', '충청남도', '예산', '예산군', '응봉', '응봉면', '면', '후', '후사리', '사리', '33']"
663,방산낚시터,충청남도 예산군 대술면 방산리 143-2,36.65966566,126.936771,"['충청남', '충청남도', '예산', '예산군', '대술', '대술면', '면', '방산']"
664,용봉낚시터,충청남도 예산군 덕산면 둔리 504-9,36.66508767,126.6466247,"['충청남', '충청남도', '예산', '예산군', '덕산', '덕산면', '면', '리']"
665,송석낚시터,충청남도 예산군 대술면 대술동로 387-10,36.68755801,126.946816,"['충청남', '충청남도', '예산', '예산군', '대술', '대술면', '면', '대', '대술동로', '술', '동로']"
666,강남호,충청남도 태안군 고남면 안면대로 4439,36.408243,126.419369,"['충청남', '충청남도', '태안', '태안군', '고', '고남', '고남면', '남면', '면', '안면', '4439']"
667,경남수산,충청남도 태안군 고남면 탄개길 33,36.40810295,126.422973,"['충청남', '충청남도', '태안', '태안군', '고', '고남', '고남면', '남면', '면', '개', '개길', '길', '33']"
668,영목수산좌대,충청남도 태안군 고남면 월고지길 53,36.399587,126.4265487,"['충청남', '충청남도', '태안', '태안군', '고', '고남', '고남면', '남면', '면', '월', '월고지길', '고지', '길', '53']"
669,안면도영목항,충청남도 태안군 고남면 안면대로 4558,36.400055,126.426424,"['충청남', '충청남도', '태안', '태안군', '고', '고남', '고남면', '남면', '면', '안면', '4558']"
670,대일,충청남도 태안군 고남면 고남리 125,36.407639,126.42209,"['충청남', '충청남도', '태안', '태안군', '고', '고남', '고남면', '남면', '면', '고남리', '남', '리', '125']"
671,미조리,충청남도 태안군 고남면 월고지길 49-7,36.39971346,126.4263766,"['충청남', '충청남도', '태안', '태안군', '고', '고남', '고남면', '남면', '면', '월', '월고지길', '고지', '길']"
672,대박,충청남도 태안군 고남면 안면대로 4407-239,36.4182042,126.428521,"['충청남', '충청남도', '태안', '태안군', '고', '고남', '고남면', '남면', '면', '안면']"
673,천우수산,충청남도 태안군 안면읍 대야로 304-41,36.46427427,126.4163916,"['충청남', '충청남도', '태안', '태안군', '안면', '안면읍', '대야']"
674,여정수산,충청남도 태안군 안면읍 응지마을길 20-7,36.51758799,126.345242,"['충청남', '충청남도', '태안', '태안군', '안면', '안면읍', '응', '응지마을길', '지', '마을', '길']"
675,어성,충청남도 태안군 안면읍 대야로 323-7,36.4654124,126.414806,"['충청남', '충청남도', '태안', '태안군', '안면', '안면읍', '대야']"
676,토도수산,충청남도 태안군 안면읍 대야로 323-45,36.46592426,126.4154688,"['충청남', '충청남도', '태안', '태안군', '안면', '안면읍', '대야']"
677,백호좌대,충청남도 태안군 남면 천수만로 340-54,36.619584,126.3479666,"['충청남', '충청남도', '태안', '태안군', '남면', '천수만']"
678,태극호좌대,충청남도 태안군 남면 한바위길 10-11,36.621567,126.348669,"['충청남', '충청남도', '태안', '태안군', '남면', '바위', '바위길', '길']"
679,중앙호좌대,충청남도 태안군 남면 한바위길 61,36.62279643,126.354434,"['충청남', '충청남도', '태안', '태안군', '남면', '바위', '바위길', '길', '61']"
680,힐링호좌대,충청남도 태안군 남면 한바위길 54-16,36.62094968,126.3541975,"['충청남', '충청남도', '태안', '태안군', '남면', '바위', '바위길', '길']"
681,신진좌대,충청남도 태안군 남면 한바위길 36-7,36.62086745,126.353658,"['충청남', '충청남도', '태안', '태안군', '남면', '바위', '바위길', '길']"
682,황금좌대,충청남도 태안군 남면 천수만로 340-7,36.621423,126.3467617,"['충청남', '충청남도', '태안', '태안군', '남면', '천수만']"
683,해인호좌대,충청남도 태안군 남면 한바위길 36-21,36.62031491,126.354128,"['충청남', '충청남도', '태안', '태안군', '남면', '바위', '바위길', '길']"
684,수성호좌대,충청남도 태안군 남면 한바위길 54-12,36.62135688,126.354174,"['충청남', '충청남도', '태안', '태안군', '남면', '바위', '바위길', '길']"
685,대원호좌대,충청남도 태안군 남면 한바위길 54-10,36.621556,126.3543847,"['충청남', '충청남도', '태안', '태안군', '남면', '바위', '바위길', '길']"
686,남용호좌대,충청남도 태안군 남면 당암리 1-12,36.619672,126.354366,"['충청남', '충청남도', '태안', '태안군', '남면', '당', '당암', '암']"
687,서해대교바다낚시터,충청남도 당진시 신평면 샛터길 117-121,36.9167,126.7833,"['충청남', '충청남도', '당', '당진시', '진시', '신평', '신평면', '면', '샛', '길']"
688,장고항덕진호좌대낚시터,충청남도 당진시 석문면 장고항로 334-48,37.0333,126.5,"['충청남', '충청남도', '당', '당진시', '진시', '석문', '석문면', '면', '장고', '장고항로', '항로']"
689,그린좌대낚시터,충청남도 당진시 석문면 장고항로 334-48,37.0333,126.5,"['충청남', '충청남도', '당', '당진시', '진시', '석문', '석문면', '면', '장고', '장고항로', '항로']"
690,병기호좌대낚시터,충청남도 당진시 석문면 왜목길 73,37.0333,126.5333,"['충청남', '충청남도', '당', '당진시', '진시', '석문', '석문면', '면', '목', '목길', '길', '73']"
691,고래좌대낚시터,충청남도 당진시 석문면 왜목길 73,37.0333,126.5333,"['충청남', '충청남도', '당', '당진시', '진시', '석문', '석문면', '면', '목', '목길', '길', '73']"
692,해맞이좌대낚시터,충청남도 당진시 석문면 왜목길 73,37.0333,126.5333,"['충청남', '충청남도', '당', '당진시', '진시', '석문', '석문면', '면', '목', '목길', '길', '73']"
693,왜목마을좌대낚시터,충청남도 당진시 석문면 왜목길 73,37.0333,126.5333,"['충청남', '충청남도', '당', '당진시', '진시', '석문', '석문면', '면', '목', '목길', '길', '73']"
694,무기수산좌대낚시터,충청남도 당진시 석문면 난지3길 12,37.0167,126.45,"['충청남', '충청남도', '당', '당진시', '진시', '석문', '석문면', '면', '난지', '난지3길', '3', '길', '12']"
695,부흥3호좌대낚시터,충청남도 당진시 석문면 난지3길 12,37.0,126.45,"['충청남', '충청남도', '당', '당진시', '진시', '석문', '석문면', '면', '난지', '난지3길', '3', '길', '12']"
696,미리내가두리낚시2호낚시터,충청남도 당진시 석문면 난지3길 12,37.0,126.45,"['충청남', '충청남도', '당', '당진시', '진시', '석문', '석문면', '면', '난지', '난지3길', '3', '길', '12']"
697,미리내가두리낚시터,충청남도 당진시 석문면 난지3길 12,37.0,126.45,"['충청남', '충청남도', '당', '당진시', '진시', '석문', '석문면', '면', '난지', '난지3길', '3', '길', '12']"
698,해성2호좌대낚시터,충청남도 당진시 석문면 난지3길 12,37.0,126.45,"['충청남', '충청남도', '당', '당진시', '진시', '석문', '석문면', '면', '난지', '난지3길', '3', '길', '12']"
699,부흥호좌대2낚시터,충청남도 당진시 석문면 난지3길 12,37.0,126.45,"['충청남', '충청남도', '당', '당진시', '진시', '석문', '석문면', '면', '난지', '난지3길', '3', '길', '12']"
700,아쿠아좌대낚시터,충청남도 당진시 석문면 난지3길 12,37.0,126.45,"['충청남', '충청남도', '당', '당진시', '진시', '석문', '석문면', '면', '난지', '난지3길', '3', '길', '12']"
701,부흥호가두리낚시터,충청남도 당진시 석문면 난지3길 12,37.0,126.45,"['충청남', '충청남도', '당', '당진시', '진시', '석문', '석문면', '면', '난지', '난지3길', '3', '길', '12']"
702,낚시타운좌대낚시터,충청남도 당진시 석문면 난지3길 12,37.0,126.45,"['충청남', '충청남도', '당', '당진시', '진시', '석문', '석문면', '면', '난지', '난지3길', '3', '길', '12']"
703,훼미리호좌대낚시터,충청남도 당진시 석문면 난지3길 12,37.0,126.45,"['충청남', '충청남도', '당', '당진시', '진시', '석문', '석문면', '면', '난지', '난지3길', '3', '길', '12']"
704,스카이좌대낚시터,충청남도 당진시 석문면 난지3길 12,37.0,126.45,"['충청남', '충청남도', '당', '당진시', '진시', '석문', '석문면', '면', '난지', '난지3길', '3', '길', '12']"
705,돌고래좌대낚시터,충청남도 당진시 석문면 난지3길 12,37.0,126.45,"['충청남', '충청남도', '당', '당진시', '진시', '석문', '석문면', '면', '난지', '난지3길', '3', '길', '12']"
706,와따좌대낚시터,충청남도 당진시 석문면 난지3길 12,37.0,126.45,"['충청남', '충청남도', '당', '당진시', '진시', '석문', '석문면', '면', '난지', '난지3길', '3', '길', '12']"
707,죽도해상낚시터,충청남도 홍성군 서부면 남당항로,36.519993,126.435763,"['충청남', '충청남도', '홍성', '홍성군', '서부', '서부면', '면', '남당', '남당항로', '항로']"
708,광석낚시터,충청남도 계룡시 엄사면 광석향한2길 58,36.2714,127.2196,"['충청남', '충청남도', '계룡', '계룡시', '엄사', '광석', '광석향', '향', '2', '2길', '길', '58']"
709,캠피그라운드,충청남도 부여군 부여읍 삼충로272번길 12,36.307171,126.958704,"['충청남', '충청남도', '부여', '부여군', '부여읍', '삼', '삼충', '충', '272', '272번길', '번', '길', '12']"
710,만길호좌대,충청남도 태안군 남면 한바위길 36-9,36.62075219,126.3536715,"['충청남', '충청남도', '태안', '태안군', '남면', '바위', '바위길', '길']"
711,성호좌대,충청남도 태안군 남면 한바위길 10-17,36.655894,126.302754,"['충청남', '충청남도', '태안', '태안군', '남면', '바위', '바위길', '길']"
712,성호1좌대,충청남도 태안군 남면 한바위길 10-17,36.655894,126.302754,"['충청남', '충청남도', '태안', '태안군', '남면', '바위', '바위길', '길']"
713,해성좌대,충청남도 태안군 남면 한바위길 6-24,36.62142778,126.347343,"['충청남', '충청남도', '태안', '태안군', '남면', '바위', '바위길', '길']"
714,갈음이 해상낚시공원,충청남도 태안군 근흥면 갈음이길 105-1,36.69441068,126.159344,"['충청남', '충청남도', '태안', '태안군', '근흥', '근흥면', '면', '갈음', '길']"
715,태안바다,충청남도 태안군 태안읍 중앙로 187,36.749468,126.308131,"['충청남', '충청남도', '태안', '태안군', '태안읍', '중앙', '187']"
716,수진좌대2,충청남도 태안군 고남면 누동로 21-23,36.43325976,126.4046197,"['충청남', '충청남도', '태안', '태안군', '고', '고남', '고남면', '남면', '면', '누', '누동로', '동로']"
717,소망좌대,충청남도 태안군 고남면 구매길 67,36.424694,126.4293151,"['충청남', '충청남도', '태안', '태안군', '고', '고남', '고남면', '남면', '면', '구매', '구매길', '길', '67']"
718,킹콩좌대,충청남도 태안군 고남면 빗독2길6,36.42351821,126.409325,"['충청남', '충청남도', '태안', '태안군', '고', '고남', '고남면', '남면', '면', '빗', '빗독2길', '독', '2', '길', '6']"
719,남일수산좌대,충청남도 태안군 안면읍 장터로 254-11,36.528999,126.348326,"['충청남', '충청남도', '태안', '태안군', '안면', '안면읍', '장터']"
720,형제,충청남도 태안군 고남면 젓개길 276-1,36.43592403,126.430585,"['충청남', '충청남도', '태안', '태안군', '고', '고남', '고남면', '남면', '면', '젓']"
721,인어좌대,충청남도 태안군 고남면 구매길 41-1,36.42553196,126.426836,"['충청남', '충청남도', '태안', '태안군', '고', '고남', '고남면', '남면', '면', '구매', '구매길', '길']"
722,용성좌대,충청남도 태안군 고남면 발화지길 254-8,36.44021872,126.4196768,"['충청남', '충청남도', '태안', '태안군', '고', '고남', '고남면', '남면', '면', '발', '발화지길', '화지', '길']"
723,수진좌대,충청남도 태안군 고남면 누동로 21-23,36.43325976,126.4046197,"['충청남', '충청남도', '태안', '태안군', '고', '고남', '고남면', '남면', '면', '누', '누동로', '동로']"
724,순정좌대,충청남도 태안군 고남면 구매길 41-36,36.42707357,126.430339,"['충청남', '충청남도', '태안', '태안군', '고', '고남', '고남면', '남면', '면', '구매', '구매길', '길']"
725,오뚜기,충청남도 태안군 고남면 젓개길 276-1,36.43592403,126.430585,"['충청남', '충청남도', '태안', '태안군', '고', '고남', '고남면', '남면', '면', '젓']"
726,달빛좌대,충청남도 태안군 안면읍 안면대로 2984-4,36.51129018,126.347753,"['충청남', '충청남도', '태안', '태안군', '안면', '안면읍', '안면']"
727,오형제,충청남도 태안군 고남면 젓개길 276-1,36.43592403,126.430585,"['충청남', '충청남도', '태안', '태안군', '고', '고남', '고남면', '남면', '면', '젓']"
728,매일좌대,충청남도 태안군 고남면 빗독2길 2,36.423297,126.409575,"['충청남', '충청남도', '태안', '태안군', '고', '고남', '고남면', '남면', '면', '빗', '빗독2길', '독', '2', '길']"
729,그린바다,충청남도 태안군 고남면 젓개길 274-3,36.435815,126.4307282,"['충청남', '충청남도', '태안', '태안군', '고', '고남', '고남면', '남면', '면', '젓']"
730,수평선좌대,충청남도 태안군 고남면 옷점길 147-46,36.41310226,126.400991,"['충청남', '충청남도', '태안', '태안군', '고', '고남', '고남면', '남면', '면', '옷', '옷점길', '점', '길']"
731,호포유어,충청남도 태안군 안면읍 여수해길 126-139,36.55435297,126.3724757,"['충청남', '충청남도', '태안', '태안군', '안면', '안면읍', '여수', '길']"
732,의항리해상공원,충청남도 태안군 소원면 송의로 698,36.82964098,126.1616348,"['충청남', '충청남도', '태안', '태안군', '소원', '소원면', '면', '송', '로', '698']"
733,김선장낚시터,충청남도 서산시 대산읍 화곡리 1845 지선,35.2672,129.0183,"['충청남', '충청남도', '서산', '서산시', '대산', '대산읍', '화곡', '1845', '지선']"
734,대호낚시터,충청남도 서산시 대산읍 화곡리 1845 지선,35.2672,129.0183,"['충청남', '충청남도', '서산', '서산시', '대산', '대산읍', '화곡', '1845', '지선']"
735,우리낚시터,충청남도 서산시 대산읍 화곡리 1891지선,35.2672,129.0183,"['충청남', '충청남도', '서산', '서산시', '대산', '대산읍', '화곡', '1891', '1891지선', '지선']"
736,백련낚시터,충청남도 서산시 대산읍 화곡리 1891지선,35.2672,129.0183,"['충청남', '충청남도', '서산', '서산시', '대산', '대산읍', '화곡', '1891', '1891지선', '지선']"
737,항구낚시터,충청남도 서산시 대산읍 화곡리 1891지선,35.2672,129.0183,"['충청남', '충청남도', '서산', '서산시', '대산', '대산읍', '화곡', '1891', '1891지선', '지선']"
738,만석낚시터,충청남도 서산시 대산읍 화곡리 1845 지선,35.2672,129.0183,"['충청남', '충청남도', '서산', '서산시', '대산', '대산읍', '화곡', '1845', '지선']"
739,벌곡낚시터,충청남도 논산시 벌곡면 대둔로575번길 25-7,36.189536,127.25038,"['충청남', '충청남도', '논산', '논산시', '벌곡', '벌곡면', '면', '대', '로', '로575번길', '575', '번', '길']"
740,죽림낚시터,충청남도 논산시 연무읍 황화정리 362-1,36.094204,127.11998,"['충청남', '충청남도', '논산', '논산시', '연무', '연무읍', '황화', '황화정리', '정리']"
741,용곡낚시터,충청북도 청주시 상당구 미원면 미원초정로 685-26,36.683613,127.636857,"['충청북', '충청북도', '청주', '청주시', '상당', '상당구', '미원', '미원면', '면', '미', '미원초정로', '원초', '정로']"
742,한계리낚시터,충청북도 청주시 상당구 가덕면 한계1길 170,36.606594,127.562466,"['충청북', '충청북도', '청주', '청주시', '상당', '상당구', '가덕', '가덕면', '면', '한계', '한계1길', '1', '길', '170']"
743,중리낚시터,충청북도 청주시 상당구 미원면 쌍이운교로 262,36.669118,127.665454,"['충청북', '충청북도', '청주', '청주시', '상당', '상당구', '미원', '미원면', '면', '쌍', '운', '운교', '교', '262']"
744,이정골낚시터,충청북도 청주시 상당구 용정동 23-1,36.636061,127.523977,"['충청북', '충청북도', '청주', '청주시', '상당', '상당구', '용정', '용정동', '동']"
745,장자골낚시터,충청북도 청주시 상당구 문의면 남계1길 3,36.535554,127.503843,"['충청북', '충청북도', '청주', '청주시', '상당', '상당구', '문의', '문의면', '면', '남계', '남계1길', '1', '길', '3']"
746,척산낚시터,충청북도 청주시 서원구 남이면 척산리 176-2,36.559086,127.453531,"['충청북', '충청북도', '청주', '청주시', '서', '서원구', '원구', '남이', '남이면', '면', '산리']"
747,일신낚시터,충청북도 청주시 청원구 오창읍 일신길 34-27,36.756746,127.470374,"['충청북', '충청북도', '청주', '청주시', '청원', '청원구', '오', '오창읍', '창', '일', '일신길', '신길']"
748,유호정낚시터,충청북도 청주시 청원구 내수읍 우산2길 65,36.710498,127.412345,"['충청북', '충청북도', '청주', '청주시', '청원', '청원구', '내수', '내수읍', '우산', '우산2길', '2', '길', '65']"
749,부연낚시터,충청북도 청주시 청원구 북이면 신기초정로 335,36.736716,127.573571,"['충청북', '충청북도', '청주', '청주시', '청원', '청원구', '북이', '북이면', '면', '기초', '기초정로', '정로', '335']"
750,초정낚시터,충청북도 청주시 청원구 내수읍 세교초정로 369,36.714903,127.599766,"['충청북', '충청북도', '청주', '청주시', '청원', '청원구', '내수', '내수읍', '세교', '세교초정로', '초', '정로', '369']"
751,비상낚시터,충청북도 청주시 청원구 내수읍 비상길 22-58,36.704427,127.580032,"['충청북', '충청북도', '청주', '청주시', '청원', '청원구', '내수', '내수읍', '비상', '비상길', '길']"
752,송말낚시터,충청북도 청주시 흥덕구 지동로75번길 39 (지동동),36.642624,127.412433,"['충청북', '충청북도', '청주', '청주시', '흥덕', '흥덕구', '지동', '75', '75번길', '번', '길', '39', '지동동', '동']"
753,소로낚시터,충청북도 청주시 흥덕구 옥산면 소로2길 148,36.697368,127.401441,"['충청북', '충청북도', '청주', '청주시', '흥덕', '흥덕구', '옥산', '옥산면', '면', '소로', '소로2길', '2', '길', '148']"
754,공북낚시터,충청북도 청주시 흥덕구 오송읍 정중연제로 651-84,36.652114,127.312772,"['충청북', '충청북도', '청주', '청주시', '흥덕', '흥덕구', '오', '오송읍', '송', '정중', '정중연제', '연제']"
755,성화낚시터,충청북도 청주시 서원구 성화로 43-9 (성화동),36.608749,127.446669,"['충청북', '충청북도', '청주', '청주시', '서', '서원구', '원구', '성화', '성화', '성화동', '동']"
756,주성낚시터,"충청북도 청주시 청원구 내수읍 도원세교로 124-88, 주성낚시터",36.700498,127.536579,"['충청북', '충청북도', '청주', '청주시', '청원', '청원구', '내수', '내수읍', '도원', '도원세교', '세교', '주성', '주성낚시터']"
757,옥산낚시터,충청북도 청주시 흥덕구 신촌동 413-9,36.653982,127.386549,"['충청북', '충청북도', '청주', '청주시', '흥덕', '흥덕구', '신촌', '신촌동', '동']"
758,연정낚시터,충청북도 청주시 흥덕구 강내면 연정1길 26,36.581306,127.380048,"['충청북', '충청북도', '청주', '청주시', '흥덕', '흥덕구', '강내', '강내면', '면', '연정', '연정1길', '1', '길', '26']"
